[
  {
    "id": "2026-fbs-401862830",
    "week": 12,
    "date": "2026-11-19",
    "day": "Wednesday",
    "kickoff": "9p",
    "home": "Temple",
    "away": "Rice",
    "homeLogo": null,
    "awayLogo": null,
    "venue": {
      "name": "Lincoln Financial Field",
      "lat": 39.9008,
      "lng": -75.1675
    },
    "division": "fbs"
  },
  {
    "id": "2026-fbs-401858302",
    "week": 12,
    "date": "2026-11-20",
    "day": "Thursday",
    "kickoff": "9p",
    "home": "Miami",
    "away": "Virginia Tech",
    "homeLogo": null,
    "awayLogo": null,
    "venue": {
      "name": "Hard Rock Stadium",
      "lat": 25.958,
      "lng": -80.2389
    },
    "division": "fbs"
  },
  {
    "id": "2026-fbs-401856755",
    "week": 12,
    "date": "2026-11-21",
    "day": "Friday",
    "kickoff": "9p",
    "home": "Texas",
    "away": "Arkansas",
    "homeLogo": "https://a.espncdn.com/i/teamlogos/ncaa/500/251.png",
    "awayLogo": null,
    "venue": {
      "name": "DKR-Texas Memorial Stadium",
      "lat": 30.2839,
      "lng": -97.7325
    },
    "division": "fbs"
  },
  {
    "id": "2026-fbs-401858531",
    "week": 12,
    "date": "2026-11-21",
    "day": "Friday",
    "kickoff": "9p",
    "home": "Nebraska",
    "away": "Ohio State",
    "homeLogo": null,
    "awayLogo": null,
    "venue": {
      "name": "Memorial Stadium (Lincoln, NE)",
      "lat": 40.8202,
      "lng": -96.7055
    },
    "division": "fbs"
  },
  {
    "id": "2026-fbs-401858304",
    "week": 12,
    "date": "2026-11-21",
    "day": "Friday",
    "kickoff": "9p",
    "home": "Florida State",
    "away": "NC State",
    "homeLogo": null,
    "awayLogo": null,
    "venue": {
      "name": "Doak Campbell Stadium",
      "lat": 30.4384,
      "lng": -84.3045
    },
    "division": "fbs"
  },
  {
    "id": "2026-fbs-401858532",
    "week": 12,
    "date": "2026-11-21",
    "day": "Friday",
    "kickoff": "9p",
    "home": "Penn State",
    "away": "Rutgers",
    "homeLogo": null,
    "awayLogo": null,
    "venue": {
      "name": "Beaver Stadium",
      "lat": 40.8122,
      "lng": -77.8561
    },
    "division": "fbs"
  },
  {
    "id": "2026-fbs-401856746",
    "week": 12,
    "date": "2026-11-21",
    "day": "Friday",
    "kickoff": "9p",
    "home": "Alabama",
    "away": "Chattanooga",
    "homeLogo": null,
    "awayLogo": null,
    "venue": {
      "name": "Bryant-Denny Stadium",
      "lat": 33.208,
      "lng": -87.5502
    },
    "division": "fbs"
  },
  {
    "id": "2026-fbs-401858534",
    "week": 12,
    "date": "2026-11-21",
    "day": "Friday",
    "kickoff": "9p",
    "home": "USC",
    "away": "Maryland",
    "homeLogo": null,
    "awayLogo": null,
    "venue": {
      "name": "Los Angeles Memorial Coliseum",
      "lat": 34.0141,
      "lng": -118.2879
    },
    "division": "fbs"
  },
  {
    "id": "2026-fbs-401858527",
    "week": 12,
    "date": "2026-11-21",
    "day": "Friday",
    "kickoff": "9p",
    "home": "Illinois",
    "away": "Iowa",
    "homeLogo": null,
    "awayLogo": null,
    "venue": {
      "name": "Memorial Stadium (Champaign, IL)",
      "lat": 40.0993,
      "lng": -88.2358
    },
    "division": "fbs"
  },
  {
    "id": "2026-fbs-401864545",
    "week": 12,
    "date": "2026-11-21",
    "day": "Friday",
    "kickoff": "9p",
    "home": "Air Force",
    "away": "UTEP",
    "homeLogo": "https://a.espncdn.com/i/teamlogos/ncaa/500/2005.png",
    "awayLogo": null,
    "venue": {
      "name": "Falcon Stadium",
      "lat": 38.9967,
      "lng": -104.8436
    },
    "division": "fbs"
  },
  {
    "id": "2026-fbs-401856747",
    "week": 12,
    "date": "2026-11-21",
    "day": "Friday",
    "kickoff": "9p",
    "home": "Auburn",
    "away": "Samford",
    "homeLogo": null,
    "awayLogo": null,
    "venue": {
      "name": "Jordan-Hare Stadium",
      "lat": 32.6017,
      "lng": -85.4893
    },
    "division": "fbs"
  },
  {
    "id": "2026-fbs-401864544",
    "week": 12,
    "date": "2026-11-21",
    "day": "Friday",
    "kickoff": "9p",
    "home": "San José State",
    "away": "UNLV",
    "homeLogo": "https://a.espncdn.com/i/teamlogos/ncaa/500/23.png",
    "awayLogo": "https://a.espncdn.com/i/teamlogos/ncaa/500/2439.png",
    "venue": {
      "name": "CEFCU Stadium",
      "lat": 37.3197,
      "lng": -121.8684
    },
    "division": "fbs"
  },
  {
    "id": "2026-fbs-401856871",
    "week": 12,
    "date": "2026-11-21",
    "day": "Friday",
    "kickoff": "9p",
    "home": "Baylor",
    "away": "Texas Tech",
    "homeLogo": null,
    "awayLogo": null,
    "venue": {
      "name": "Lane Stadium",
      "lat": 37.2206,
      "lng": -80.4183
    },
    "division": "fbs"
  },
  {
    "id": "2026-fbs-401858307",
    "week": 12,
    "date": "2026-11-21",
    "day": "Friday",
    "kickoff": "9p",
    "home": "Notre Dame",
    "away": "SMU",
    "homeLogo": null,
    "awayLogo": null,
    "venue": {
      "name": "Notre Dame Stadium",
      "lat": 41.6997,
      "lng": -86.2347
    },
    "division": "fbs"
  },
  {
    "id": "2026-fbs-401856866",
    "week": 12,
    "date": "2026-11-21",
    "day": "Friday",
    "kickoff": "9p",
    "home": "Kansas",
    "away": "BYU",
    "homeLogo": null,
    "awayLogo": null,
    "venue": {
      "name": "War Memorial Stadium",
      "lat": 41.307,
      "lng": -105.5677
    },
    "division": "fbs"
  },
  {
    "id": "2026-fbs-401856748",
    "week": 12,
    "date": "2026-11-21",
    "day": "Friday",
    "kickoff": "9p",
    "home": "Florida",
    "away": "Vanderbilt",
    "homeLogo": null,
    "awayLogo": null,
    "venue": {
      "name": "Ben Hill Griffin Stadium",
      "lat": 29.65,
      "lng": -82.3486
    },
    "division": "fbs"
  },
  {
    "id": "2026-fbs-401864541",
    "week": 12,
    "date": "2026-11-21",
    "day": "Friday",
    "kickoff": "9p",
    "home": "Nevada",
    "away": "Hawai'i",
    "homeLogo": "https://a.espncdn.com/i/teamlogos/ncaa/500/2440.png",
    "awayLogo": "https://a.espncdn.com/i/teamlogos/ncaa/500/62.png",
    "venue": {
      "name": "Mackay Stadium",
      "lat": 39.5468,
      "lng": -119.8175
    },
    "division": "fbs"
  },
  {
    "id": "2026-fbs-401858529",
    "week": 12,
    "date": "2026-11-21",
    "day": "Friday",
    "kickoff": "9p",
    "home": "Michigan State",
    "away": "Oregon",
    "homeLogo": null,
    "awayLogo": null,
    "venue": {
      "name": "Spartan Stadium",
      "lat": 37.3975,
      "lng": -121.8635
    },
    "division": "fbs"
  },
  {
    "id": "2026-fbs-401864542",
    "week": 12,
    "date": "2026-11-21",
    "day": "Friday",
    "kickoff": "9p",
    "home": "Wyoming",
    "away": "New Mexico",
    "homeLogo": "https://a.espncdn.com/i/teamlogos/ncaa/500/2751.png",
    "awayLogo": "https://a.espncdn.com/i/teamlogos/ncaa/500/167.png",
    "venue": {
      "name": "War Memorial Stadium",
      "lat": 41.307,
      "lng": -105.5677
    },
    "division": "fbs"
  },
  {
    "id": "2026-fbs-401858535",
    "week": 12,
    "date": "2026-11-21",
    "day": "Friday",
    "kickoff": "9p",
    "home": "Washington",
    "away": "Indiana",
    "homeLogo": null,
    "awayLogo": null,
    "venue": {
      "name": "Husky Stadium",
      "lat": 47.6504,
      "lng": -122.3016
    },
    "division": "fbs"
  },
  {
    "id": "2026-fbs-401860918",
    "week": 12,
    "date": "2026-11-21",
    "day": "Friday",
    "kickoff": "9p",
    "home": "Fresno State",
    "away": "Colorado State",
    "homeLogo": "https://a.espncdn.com/i/teamlogos/ncaa/500/278.png",
    "awayLogo": "https://a.espncdn.com/i/teamlogos/ncaa/500/36.png",
    "venue": {
      "name": "Valley Children's Stadium",
      "lat": 36.8144,
      "lng": -119.758
    },
    "division": "fbs"
  },
  {
    "id": "2026-fbs-401856751",
    "week": 12,
    "date": "2026-11-21",
    "day": "Friday",
    "kickoff": "9p",
    "home": "Missouri",
    "away": "Kentucky",
    "homeLogo": null,
    "awayLogo": null,
    "venue": {
      "name": "War Memorial Stadium",
      "lat": 41.307,
      "lng": -105.5677
    },
    "division": "fbs"
  },
  {
    "id": "2026-fbs-401856754",
    "week": 12,
    "date": "2026-11-21",
    "day": "Friday",
    "kickoff": "9p",
    "home": "Tennessee",
    "away": "LSU",
    "homeLogo": null,
    "awayLogo": null,
    "venue": {
      "name": "Neyland Stadium",
      "lat": 35.9551,
      "lng": -83.9252
    },
    "division": "fbs"
  },
  {
    "id": "2026-fbs-401858528",
    "week": 12,
    "date": "2026-11-21",
    "day": "Friday",
    "kickoff": "9p",
    "home": "Michigan",
    "away": "UCLA",
    "homeLogo": null,
    "awayLogo": null,
    "venue": {
      "name": "Michigan Stadium",
      "lat": 42.2658,
      "lng": -83.7487
    },
    "division": "fbs"
  },
  {
    "id": "2026-fbs-401858308",
    "week": 12,
    "date": "2026-11-21",
    "day": "Friday",
    "kickoff": "9p",
    "home": "California",
    "away": "Stanford",
    "homeLogo": null,
    "awayLogo": "https://a.espncdn.com/i/teamlogos/ncaa/500/24.png",
    "venue": {
      "name": "California Memorial Stadium",
      "lat": 37.8713,
      "lng": -122.2507
    },
    "division": "fbs"
  }
]