[
  {
    "id": "2026-ncaa-401858245",
    "sourceId": 401858245,
    "sourceWeek": 5,
    "week": 6,
    "date": "2026-10-02",
    "day": "Friday",
    "kickoff": "TBD",
    "home": "Virginia Tech",
    "away": "Pittsburgh",
    "homeDivision": "fbs",
    "awayDivision": "fbs",
    "homeLogo": null,
    "awayLogo": null,
    "venue": {
      "name": "Lane Stadium",
      "lat": 37.2206,
      "lng": -80.4183
    },
    "missingVenue": false,
    "division": "fbs"
  },
  {
    "id": "2026-ncaa-401858473",
    "sourceId": 401858473,
    "sourceWeek": 5,
    "week": 6,
    "date": "2026-10-03",
    "day": "Saturday",
    "kickoff": "TBD",
    "home": "Iowa",
    "away": "Ohio State",
    "homeDivision": "fbs",
    "awayDivision": "fbs",
    "homeLogo": null,
    "awayLogo": null,
    "venue": {
      "name": "Kinnick Stadium",
      "lat": 41.6581,
      "lng": -91.5509
    },
    "missingVenue": false,
    "division": "fbs"
  },
  {
    "id": "2026-ncaa-401858253",
    "sourceId": 401858253,
    "sourceWeek": 5,
    "week": 6,
    "date": "2026-10-03",
    "day": "Saturday",
    "kickoff": "TBD",
    "home": "Florida State",
    "away": "Virginia",
    "homeDivision": "fbs",
    "awayDivision": "fbs",
    "homeLogo": null,
    "awayLogo": null,
    "venue": {
      "name": "Doak Campbell Stadium",
      "lat": 30.4384,
      "lng": -84.3045
    },
    "missingVenue": false,
    "division": "fbs"
  },
  {
    "id": "2026-ncaa-401860921",
    "sourceId": 401860921,
    "sourceWeek": 5,
    "week": 6,
    "date": "2026-10-03",
    "day": "Saturday",
    "kickoff": "TBD",
    "home": "Washington State",
    "away": "Fresno State",
    "homeDivision": "fbs",
    "awayDivision": "fbs",
    "homeLogo": null,
    "awayLogo": "https://a.espncdn.com/i/teamlogos/ncaa/500/278.png",
    "venue": {
      "name": "Gesa Field",
      "lat": 46.7318,
      "lng": -117.1601
    },
    "missingVenue": false,
    "division": "fbs"
  },
  {
    "id": "2026-ncaa-401858249",
    "sourceId": 401858249,
    "sourceWeek": 5,
    "week": 6,
    "date": "2026-10-03",
    "day": "Saturday",
    "kickoff": "TBD",
    "home": "Clemson",
    "away": "Miami",
    "homeDivision": "fbs",
    "awayDivision": "fbs",
    "homeLogo": null,
    "awayLogo": null,
    "venue": {
      "name": "Memorial Stadium (Clemson, SC)",
      "lat": 34.6784,
      "lng": -82.8444
    },
    "missingVenue": false,
    "division": "fbs"
  },
  {
    "id": "2026-ncaa-401856807",
    "sourceId": 401856807,
    "sourceWeek": 5,
    "week": 6,
    "date": "2026-10-03",
    "day": "Saturday",
    "kickoff": "TBD",
    "home": "Kansas",
    "away": "Middle Tennessee",
    "homeDivision": "fbs",
    "awayDivision": "fbs",
    "homeLogo": null,
    "awayLogo": null,
    "venue": {
      "name": "Memorial Stadium",
      "lat": 38.9628,
      "lng": -95.2464
    },
    "missingVenue": false,
    "division": "fbs"
  },
  {
    "id": "2026-ncaa-401860899",
    "sourceId": 401860899,
    "sourceWeek": 5,
    "week": 6,
    "date": "2026-10-03",
    "day": "Saturday",
    "kickoff": "TBD",
    "home": "Colorado State",
    "away": "Oregon State",
    "homeDivision": "fbs",
    "awayDivision": "fbs",
    "homeLogo": "https://a.espncdn.com/i/teamlogos/ncaa/500/36.png",
    "awayLogo": null,
    "venue": {
      "name": "Canvas Stadium",
      "lat": 40.5749,
      "lng": -105.0896
    },
    "missingVenue": false,
    "division": "fbs"
  },
  {
    "id": "2026-ncaa-401862791",
    "sourceId": 401862791,
    "sourceWeek": 5,
    "week": 6,
    "date": "2026-10-03",
    "day": "Saturday",
    "kickoff": "TBD",
    "home": "Air Force",
    "away": "Navy",
    "homeDivision": "fbs",
    "awayDivision": "fbs",
    "homeLogo": "https://a.espncdn.com/i/teamlogos/ncaa/500/2005.png",
    "awayLogo": null,
    "venue": {
      "name": "Falcon Stadium",
      "lat": 38.9967,
      "lng": -104.8436
    },
    "missingVenue": false,
    "division": "fbs"
  },
  {
    "id": "2026-ncaa-401862792",
    "sourceId": 401862792,
    "sourceWeek": 5,
    "week": 6,
    "date": "2026-10-03",
    "day": "Saturday",
    "kickoff": "TBD",
    "home": "South Florida",
    "away": "Temple",
    "homeDivision": "fbs",
    "awayDivision": "fbs",
    "homeLogo": null,
    "awayLogo": null,
    "venue": {
      "name": "Raymond James Stadium",
      "lat": 27.9759,
      "lng": -82.5033
    },
    "missingVenue": false,
    "division": "fbs"
  },
  {
    "id": "2026-ncaa-401858250",
    "sourceId": 401858250,
    "sourceWeek": 5,
    "week": 6,
    "date": "2026-10-03",
    "day": "Saturday",
    "kickoff": "TBD",
    "home": "North Carolina",
    "away": "Notre Dame",
    "homeDivision": "fbs",
    "awayDivision": "fbs",
    "homeLogo": null,
    "awayLogo": null,
    "venue": {
      "name": "Kenan Stadium",
      "lat": 35.9096,
      "lng": -79.0478
    },
    "missingVenue": false,
    "division": "fbs"
  },
  {
    "id": "2026-ncaa-401856708",
    "sourceId": 401856708,
    "sourceWeek": 5,
    "week": 6,
    "date": "2026-10-03",
    "day": "Saturday",
    "kickoff": "TBD",
    "home": "Missouri",
    "away": "Florida",
    "homeDivision": "fbs",
    "awayDivision": "fbs",
    "homeLogo": null,
    "awayLogo": null,
    "venue": {
      "name": "Memorial Stadium",
      "lat": 38.9628,
      "lng": -95.2464
    },
    "missingVenue": false,
    "division": "fbs"
  },
  {
    "id": "2026-ncaa-401856711",
    "sourceId": 401856711,
    "sourceWeek": 5,
    "week": 6,
    "date": "2026-10-03",
    "day": "Saturday",
    "kickoff": "TBD",
    "home": "Texas A&M",
    "away": "Arkansas",
    "homeDivision": "fbs",
    "awayDivision": "fbs",
    "homeLogo": null,
    "awayLogo": null,
    "venue": {
      "name": "Kyle Field",
      "lat": 30.61,
      "lng": -96.34
    },
    "missingVenue": false,
    "division": "fbs"
  },
  {
    "id": "2026-ncaa-401858247",
    "sourceId": 401858247,
    "sourceWeek": 5,
    "week": 6,
    "date": "2026-10-03",
    "day": "Saturday",
    "kickoff": "TBD",
    "home": "UNLV",
    "away": "California",
    "homeDivision": "fbs",
    "awayDivision": "fbs",
    "homeLogo": "https://a.espncdn.com/i/teamlogos/ncaa/500/2439.png",
    "awayLogo": null,
    "venue": {
      "name": "Allegiant Stadium",
      "lat": 36.0909,
      "lng": -115.1833
    },
    "missingVenue": false,
    "division": "fbs"
  },
  {
    "id": "2026-ncaa-401856710",
    "sourceId": 401856710,
    "sourceWeek": 5,
    "week": 6,
    "date": "2026-10-03",
    "day": "Saturday",
    "kickoff": "TBD",
    "home": "Tennessee",
    "away": "Auburn",
    "homeDivision": "fbs",
    "awayDivision": "fbs",
    "homeLogo": null,
    "awayLogo": null,
    "venue": {
      "name": "Neyland Stadium",
      "lat": 35.9551,
      "lng": -83.9252
    },
    "missingVenue": false,
    "division": "fbs"
  },
  {
    "id": "2026-ncaa-401858477",
    "sourceId": 401858477,
    "sourceWeek": 5,
    "week": 6,
    "date": "2026-10-03",
    "day": "Saturday",
    "kickoff": "TBD",
    "home": "Rutgers",
    "away": "Indiana",
    "homeDivision": "fbs",
    "awayDivision": "fbs",
    "homeLogo": null,
    "awayLogo": null,
    "venue": {
      "name": "SHI Stadium",
      "lat": 40.5139,
      "lng": -74.4647
    },
    "missingVenue": false,
    "division": "fbs"
  },
  {
    "id": "2026-ncaa-401864515",
    "sourceId": 401864515,
    "sourceWeek": 5,
    "week": 6,
    "date": "2026-10-03",
    "day": "Saturday",
    "kickoff": "TBD",
    "home": "North Dakota State",
    "away": "Wyoming",
    "homeDivision": "fbs",
    "awayDivision": "fbs",
    "homeLogo": null,
    "awayLogo": "https://a.espncdn.com/i/teamlogos/ncaa/500/2751.png",
    "venue": {
      "name": "Fargodome",
      "lat": 46.9028,
      "lng": -96.8013
    },
    "missingVenue": false,
    "division": "fbs"
  },
  {
    "id": "2026-ncaa-401856705",
    "sourceId": 401856705,
    "sourceWeek": 5,
    "week": 6,
    "date": "2026-10-03",
    "day": "Saturday",
    "kickoff": "TBD",
    "home": "Georgia",
    "away": "Vanderbilt",
    "homeDivision": "fbs",
    "awayDivision": "fbs",
    "homeLogo": null,
    "awayLogo": null,
    "venue": {
      "name": "Sanford Stadium",
      "lat": 33.9498,
      "lng": -83.3732
    },
    "missingVenue": false,
    "division": "fbs"
  },
  {
    "id": "2026-ncaa-401858475",
    "sourceId": 401858475,
    "sourceWeek": 5,
    "week": 6,
    "date": "2026-10-03",
    "day": "Saturday",
    "kickoff": "TBD",
    "home": "Nebraska",
    "away": "Maryland",
    "homeDivision": "fbs",
    "awayDivision": "fbs",
    "homeLogo": null,
    "awayLogo": null,
    "venue": {
      "name": "Memorial Stadium (Lincoln, NE)",
      "lat": 40.8202,
      "lng": -96.7055
    },
    "missingVenue": false,
    "division": "fbs"
  },
  {
    "id": "2026-ncaa-401856820",
    "sourceId": 401856820,
    "sourceWeek": 5,
    "week": 6,
    "date": "2026-10-03",
    "day": "Saturday",
    "kickoff": "TBD",
    "home": "Arizona",
    "away": "Cincinnati",
    "homeDivision": "fbs",
    "awayDivision": "fbs",
    "homeLogo": null,
    "awayLogo": null,
    "venue": {
      "name": "Arizona Stadium",
      "lat": 32.2287,
      "lng": -110.9489
    },
    "missingVenue": false,
    "division": "fbs"
  },
  {
    "id": "2026-ncaa-401856819",
    "sourceId": 401856819,
    "sourceWeek": 5,
    "week": 6,
    "date": "2026-10-03",
    "day": "Saturday",
    "kickoff": "TBD",
    "home": "Houston",
    "away": "UCF",
    "homeDivision": "fbs",
    "awayDivision": "fbs",
    "homeLogo": null,
    "awayLogo": null,
    "venue": {
      "name": "TDECU Stadium",
      "lat": 29.7211,
      "lng": -95.3506
    },
    "missingVenue": false,
    "division": "fbs"
  },
  {
    "id": "2026-ncaa-401858479",
    "sourceId": 401858479,
    "sourceWeek": 5,
    "week": 6,
    "date": "2026-10-03",
    "day": "Saturday",
    "kickoff": "TBD",
    "home": "Wisconsin",
    "away": "Michigan State",
    "homeDivision": "fbs",
    "awayDivision": "fbs",
    "homeLogo": null,
    "awayLogo": null,
    "venue": {
      "name": "Camp Randall Stadium",
      "lat": 43.0703,
      "lng": -89.4124
    },
    "missingVenue": false,
    "division": "fbs"
  },
  {
    "id": "2026-ncaa-401864513",
    "sourceId": 401864513,
    "sourceWeek": 5,
    "week": 6,
    "date": "2026-10-03",
    "day": "Saturday",
    "kickoff": "TBD",
    "home": "Hawai'i",
    "away": "San José State",
    "homeDivision": "fbs",
    "awayDivision": "fbs",
    "homeLogo": "https://a.espncdn.com/i/teamlogos/ncaa/500/62.png",
    "awayLogo": "https://a.espncdn.com/i/teamlogos/ncaa/500/23.png",
    "venue": {
      "name": "Clarence T.C. Ching Athletics Complex",
      "lat": 21.294,
      "lng": -157.818
    },
    "missingVenue": false,
    "division": "fbs"
  },
  {
    "id": "2026-ncaa-401860898",
    "sourceId": 401860898,
    "sourceWeek": 5,
    "week": 6,
    "date": "2026-10-03",
    "day": "Saturday",
    "kickoff": "TBD",
    "home": "Boise State",
    "away": "Utah State",
    "homeDivision": "fbs",
    "awayDivision": "fbs",
    "homeLogo": null,
    "awayLogo": "https://a.espncdn.com/i/teamlogos/ncaa/500/328.png",
    "venue": {
      "name": "Albertsons Stadium",
      "lat": 43.6029,
      "lng": -116.1958
    },
    "missingVenue": false,
    "division": "fbs"
  },
  {
    "id": "2026-ncaa-401856821",
    "sourceId": 401856821,
    "sourceWeek": 5,
    "week": 6,
    "date": "2026-10-03",
    "day": "Saturday",
    "kickoff": "TBD",
    "home": "Colorado",
    "away": "Texas Tech",
    "homeDivision": "fbs",
    "awayDivision": "fbs",
    "homeLogo": "https://a.espncdn.com/i/teamlogos/ncaa/500/38.png",
    "awayLogo": null,
    "venue": {
      "name": "Folsom Field",
      "lat": 40.0096,
      "lng": -105.2644
    },
    "missingVenue": false,
    "division": "fbs"
  },
  {
    "id": "2026-ncaa-401856706",
    "sourceId": 401856706,
    "sourceWeek": 5,
    "week": 6,
    "date": "2026-10-03",
    "day": "Saturday",
    "kickoff": "TBD",
    "home": "LSU",
    "away": "McNeese",
    "homeDivision": "fbs",
    "awayDivision": "fcs",
    "homeLogo": null,
    "awayLogo": null,
    "venue": {
      "name": "Tiger Stadium (LA)",
      "lat": 30.4122,
      "lng": -91.1839
    },
    "missingVenue": false,
    "division": "fbs"
  },
  {
    "id": "2026-ncaa-401860900",
    "sourceId": 401860900,
    "sourceWeek": 5,
    "week": 6,
    "date": "2026-10-03",
    "day": "Saturday",
    "kickoff": "TBD",
    "home": "San Diego State",
    "away": "Texas State",
    "homeDivision": "fbs",
    "awayDivision": "fbs",
    "homeLogo": "https://a.espncdn.com/i/teamlogos/ncaa/500/21.png",
    "awayLogo": null,
    "venue": {
      "name": "Snapdragon Stadium",
      "lat": 32.7831,
      "lng": -117.1194
    },
    "missingVenue": false,
    "division": "fbs"
  },
  {
    "id": "2026-ncaa-401866430",
    "sourceId": 401866430,
    "sourceWeek": 5,
    "week": 6,
    "date": "2026-10-03",
    "day": "Saturday",
    "kickoff": "TBD",
    "home": "Central Michigan",
    "away": "Akron",
    "homeDivision": "fbs",
    "awayDivision": "fbs",
    "homeLogo": "https://a.espncdn.com/i/teamlogos/ncaa/500/2117.png",
    "awayLogo": "https://a.espncdn.com/i/teamlogos/ncaa/500/2006.png",
    "venue": {
      "name": "Kelly/Shorts Stadium",
      "lat": 43.5779,
      "lng": -84.7738
    },
    "missingVenue": false,
    "division": "fbs"
  },
  {
    "id": "2026-ncaa-401858472",
    "sourceId": 401858472,
    "sourceWeek": 5,
    "week": 6,
    "date": "2026-10-03",
    "day": "Saturday",
    "kickoff": "TBD",
    "home": "Illinois",
    "away": "Purdue",
    "homeDivision": "fbs",
    "awayDivision": "fbs",
    "homeLogo": null,
    "awayLogo": null,
    "venue": {
      "name": "Memorial Stadium (Champaign, IL)",
      "lat": 40.0993,
      "lng": -88.2358
    },
    "missingVenue": false,
    "division": "fbs"
  },
  {
    "id": "2026-ncaa-401856822",
    "sourceId": 401856822,
    "sourceWeek": 5,
    "week": 6,
    "date": "2026-10-03",
    "day": "Saturday",
    "kickoff": "TBD",
    "home": "Iowa State",
    "away": "West Virginia",
    "homeDivision": "fbs",
    "awayDivision": "fbs",
    "homeLogo": null,
    "awayLogo": null,
    "venue": {
      "name": "Jack Trice Stadium",
      "lat": 42.014,
      "lng": -93.6356
    },
    "missingVenue": false,
    "division": "fbs"
  },
  {
    "id": "2026-ncaa-401858478",
    "sourceId": 401858478,
    "sourceWeek": 5,
    "week": 6,
    "date": "2026-10-03",
    "day": "Saturday",
    "kickoff": "TBD",
    "home": "USC",
    "away": "Washington",
    "homeDivision": "fbs",
    "awayDivision": "fbs",
    "homeLogo": null,
    "awayLogo": null,
    "venue": {
      "name": "Los Angeles Memorial Coliseum",
      "lat": 34.0141,
      "lng": -118.2879
    },
    "missingVenue": false,
    "division": "fbs"
  },
  {
    "id": "2026-ncaa-401862794",
    "sourceId": 401862794,
    "sourceWeek": 6,
    "week": 6,
    "date": "2026-10-08",
    "day": "Thursday",
    "kickoff": "TBD",
    "home": "UTSA",
    "away": "South Florida",
    "homeDivision": "fbs",
    "awayDivision": "fbs",
    "homeLogo": null,
    "awayLogo": null,
    "venue": {
      "name": "Alamodome",
      "lat": 29.4191,
      "lng": -98.4737
    },
    "missingVenue": false,
    "division": "fbs"
  }
]