[
  {
    "id": "nfl-401873052",
    "week": 10,
    "date": "2026-11-13",
    "day": "Friday",
    "kickoff": "1:15a",
    "home": "New York Giants",
    "away": "Washington Commanders",
    "homeLogo": "https://a.espncdn.com/i/teamlogos/nfl/500/scoreboard/nyg.png",
    "awayLogo": "https://a.espncdn.com/i/teamlogos/nfl/500/scoreboard/wsh.png",
    "venue": {
      "name": "MetLife Stadium",
      "lat": 40.8128,
      "lng": -74.0742
    },
    "division": "nfl"
  },
  {
    "id": "nfl-401873058",
    "week": 10,
    "date": "2026-11-15",
    "day": "Sunday",
    "kickoff": "6p",
    "home": "Atlanta Falcons",
    "away": "Kansas City Chiefs",
    "homeLogo": "https://a.espncdn.com/i/teamlogos/nfl/500/scoreboard/atl.png",
    "awayLogo": "https://a.espncdn.com/i/teamlogos/nfl/500/scoreboard/kc.png",
    "venue": {
      "name": "Mercedes-Benz Stadium",
      "lat": 33.7553,
      "lng": -84.4006
    },
    "division": "nfl"
  },
  {
    "id": "nfl-401873056",
    "week": 10,
    "date": "2026-11-15",
    "day": "Sunday",
    "kickoff": "6p",
    "home": "Cleveland Browns",
    "away": "Houston Texans",
    "homeLogo": "https://a.espncdn.com/i/teamlogos/nfl/500/scoreboard/cle.png",
    "awayLogo": "https://a.espncdn.com/i/teamlogos/nfl/500/scoreboard/hou.png",
    "venue": {
      "name": "Huntington Bank Field",
      "lat": 41.5061,
      "lng": -81.6995
    },
    "division": "nfl"
  },
  {
    "id": "nfl-401873060",
    "week": 10,
    "date": "2026-11-15",
    "day": "Sunday",
    "kickoff": "6p",
    "home": "Green Bay Packers",
    "away": "Minnesota Vikings",
    "homeLogo": "https://a.espncdn.com/i/teamlogos/nfl/500/scoreboard/gb.png",
    "awayLogo": "https://a.espncdn.com/i/teamlogos/nfl/500/scoreboard/min.png",
    "venue": {
      "name": "Lambeau Field",
      "lat": 44.5013,
      "lng": -88.0622
    },
    "division": "nfl"
  },
  {
    "id": "nfl-401873057",
    "week": 10,
    "date": "2026-11-15",
    "day": "Sunday",
    "kickoff": "6p",
    "home": "Tennessee Titans",
    "away": "Jacksonville Jaguars",
    "homeLogo": "https://a.espncdn.com/i/teamlogos/nfl/500/scoreboard/ten.png",
    "awayLogo": "https://a.espncdn.com/i/teamlogos/nfl/500/scoreboard/jax.png",
    "venue": {
      "name": "Nissan Stadium",
      "lat": 36.1665,
      "lng": -86.7713
    },
    "division": "nfl"
  },
  {
    "id": "nfl-401873059",
    "week": 10,
    "date": "2026-11-15",
    "day": "Sunday",
    "kickoff": "6p",
    "home": "Indianapolis Colts",
    "away": "Miami Dolphins",
    "homeLogo": "https://a.espncdn.com/i/teamlogos/nfl/500/scoreboard/ind.png",
    "awayLogo": "https://a.espncdn.com/i/teamlogos/nfl/500/scoreboard/mia.png",
    "venue": {
      "name": "Lucas Oil Stadium",
      "lat": 39.7601,
      "lng": -86.1639
    },
    "division": "nfl"
  },
  {
    "id": "nfl-401873055",
    "week": 10,
    "date": "2026-11-15",
    "day": "Sunday",
    "kickoff": "6p",
    "home": "New Orleans Saints",
    "away": "Carolina Panthers",
    "homeLogo": "https://a.espncdn.com/i/teamlogos/nfl/500/scoreboard/no.png",
    "awayLogo": "https://a.espncdn.com/i/teamlogos/nfl/500/scoreboard/car.png",
    "venue": {
      "name": "Caesars Superdome",
      "lat": 29.9511,
      "lng": -90.0812
    },
    "division": "nfl"
  },
  {
    "id": "nfl-401873054",
    "week": 10,
    "date": "2026-11-15",
    "day": "Sunday",
    "kickoff": "6p",
    "home": "New York Jets",
    "away": "Buffalo Bills",
    "homeLogo": "https://a.espncdn.com/i/teamlogos/nfl/500/scoreboard/nyj.png",
    "awayLogo": "https://a.espncdn.com/i/teamlogos/nfl/500/scoreboard/buf.png",
    "venue": {
      "name": "MetLife Stadium",
      "lat": 40.8128,
      "lng": -74.0742
    },
    "division": "nfl"
  },
  {
    "id": "nfl-401873062",
    "week": 10,
    "date": "2026-11-15",
    "day": "Sunday",
    "kickoff": "9:05p",
    "home": "Las Vegas Raiders",
    "away": "Seattle Seahawks",
    "homeLogo": "https://a.espncdn.com/i/teamlogos/nfl/500/scoreboard/lv.png",
    "awayLogo": "https://a.espncdn.com/i/teamlogos/nfl/500/scoreboard/sea.png",
    "venue": {
      "name": "Allegiant Stadium",
      "lat": 36.0909,
      "lng": -115.1833
    },
    "division": "nfl"
  },
  {
    "id": "nfl-401873061",
    "week": 10,
    "date": "2026-11-15",
    "day": "Sunday",
    "kickoff": "9:05p",
    "home": "Arizona Cardinals",
    "away": "Los Angeles Rams",
    "homeLogo": "https://a.espncdn.com/i/teamlogos/nfl/500/scoreboard/ari.png",
    "awayLogo": "https://a.espncdn.com/i/teamlogos/nfl/500/scoreboard/lar.png",
    "venue": {
      "name": "State Farm Stadium",
      "lat": 33.5276,
      "lng": -112.2626
    },
    "division": "nfl"
  },
  {
    "id": "nfl-401873063",
    "week": 10,
    "date": "2026-11-15",
    "day": "Sunday",
    "kickoff": "9:25p",
    "home": "Dallas Cowboys",
    "away": "San Francisco 49ers",
    "homeLogo": "https://a.espncdn.com/i/teamlogos/nfl/500/scoreboard/dal.png",
    "awayLogo": "https://a.espncdn.com/i/teamlogos/nfl/500/scoreboard/sf.png",
    "venue": {
      "name": "AT&T Stadium",
      "lat": 32.7473,
      "lng": -97.0945
    },
    "division": "nfl"
  },
  {
    "id": "nfl-401873064",
    "week": 10,
    "date": "2026-11-16",
    "day": "Monday",
    "kickoff": "1:20a",
    "home": "Cincinnati Bengals",
    "away": "Pittsburgh Steelers",
    "homeLogo": "https://a.espncdn.com/i/teamlogos/nfl/500/scoreboard/cin.png",
    "awayLogo": "https://a.espncdn.com/i/teamlogos/nfl/500/scoreboard/pit.png",
    "venue": {
      "name": "Paycor Stadium",
      "lat": 39.0954,
      "lng": -84.516
    },
    "division": "nfl"
  },
  {
    "id": "nfl-401873065",
    "week": 10,
    "date": "2026-11-17",
    "day": "Tuesday",
    "kickoff": "1:15a",
    "home": "Baltimore Ravens",
    "away": "Los Angeles Chargers",
    "homeLogo": "https://a.espncdn.com/i/teamlogos/nfl/500/scoreboard/bal.png",
    "awayLogo": "https://a.espncdn.com/i/teamlogos/nfl/500/scoreboard/lac.png",
    "venue": {
      "name": "M&T Bank Stadium",
      "lat": 39.278,
      "lng": -76.6227
    },
    "division": "nfl"
  }
]