[
  {
    "id": "nfl-401872932",
    "week": 2,
    "date": "2026-09-18",
    "day": "Friday",
    "kickoff": "5:15p",
    "home": "Buffalo Bills",
    "away": "Detroit Lions",
    "homeLogo": "https://a.espncdn.com/i/teamlogos/nfl/500/scoreboard/buf.png",
    "awayLogo": "https://a.espncdn.com/i/teamlogos/nfl/500/scoreboard/det.png",
    "venue": {
      "name": "Highmark Stadium",
      "lat": 42.7738,
      "lng": -78.787
    },
    "missingVenue": false,
    "division": "nfl"
  },
  {
    "id": "nfl-401872933",
    "week": 2,
    "date": "2026-09-20",
    "day": "Sunday",
    "kickoff": "10a",
    "home": "Atlanta Falcons",
    "away": "Carolina Panthers",
    "homeLogo": "https://a.espncdn.com/i/teamlogos/nfl/500/scoreboard/atl.png",
    "awayLogo": "https://a.espncdn.com/i/teamlogos/nfl/500/scoreboard/car.png",
    "venue": {
      "name": "Mercedes-Benz Stadium",
      "lat": 33.7553,
      "lng": -84.4006
    },
    "missingVenue": false,
    "division": "nfl"
  },
  {
    "id": "nfl-401872937",
    "week": 2,
    "date": "2026-09-20",
    "day": "Sunday",
    "kickoff": "10a",
    "home": "Chicago Bears",
    "away": "Minnesota Vikings",
    "homeLogo": "https://a.espncdn.com/i/teamlogos/nfl/500/scoreboard/chi.png",
    "awayLogo": "https://a.espncdn.com/i/teamlogos/nfl/500/scoreboard/min.png",
    "venue": {
      "name": "Soldier Field",
      "lat": 41.8623,
      "lng": -87.6167
    },
    "missingVenue": false,
    "division": "nfl"
  },
  {
    "id": "nfl-401872939",
    "week": 2,
    "date": "2026-09-20",
    "day": "Sunday",
    "kickoff": "10a",
    "home": "Tennessee Titans",
    "away": "Philadelphia Eagles",
    "homeLogo": "https://a.espncdn.com/i/teamlogos/nfl/500/scoreboard/ten.png",
    "awayLogo": "https://a.espncdn.com/i/teamlogos/nfl/500/scoreboard/phi.png",
    "venue": {
      "name": "Nissan Stadium",
      "lat": 36.1665,
      "lng": -86.7713
    },
    "missingVenue": false,
    "division": "nfl"
  },
  {
    "id": "nfl-401872946",
    "week": 2,
    "date": "2026-09-20",
    "day": "Sunday",
    "kickoff": "10a",
    "home": "New England Patriots",
    "away": "Pittsburgh Steelers",
    "homeLogo": "https://a.espncdn.com/i/teamlogos/nfl/500/scoreboard/ne.png",
    "awayLogo": "https://a.espncdn.com/i/teamlogos/nfl/500/scoreboard/pit.png",
    "venue": {
      "name": "Gillette Stadium",
      "lat": 42.0909,
      "lng": -71.2643
    },
    "missingVenue": false,
    "division": "nfl"
  },
  {
    "id": "nfl-401872936",
    "week": 2,
    "date": "2026-09-20",
    "day": "Sunday",
    "kickoff": "10a",
    "home": "New York Jets",
    "away": "Green Bay Packers",
    "homeLogo": "https://a.espncdn.com/i/teamlogos/nfl/500/scoreboard/nyj.png",
    "awayLogo": "https://a.espncdn.com/i/teamlogos/nfl/500/scoreboard/gb.png",
    "venue": {
      "name": "MetLife Stadium",
      "lat": 40.8128,
      "lng": -74.0742
    },
    "missingVenue": false,
    "division": "nfl"
  },
  {
    "id": "nfl-401872935",
    "week": 2,
    "date": "2026-09-20",
    "day": "Sunday",
    "kickoff": "10a",
    "home": "Tampa Bay Buccaneers",
    "away": "Cleveland Browns",
    "homeLogo": "https://a.espncdn.com/i/teamlogos/nfl/500/scoreboard/tb.png",
    "awayLogo": "https://a.espncdn.com/i/teamlogos/nfl/500/scoreboard/cle.png",
    "venue": {
      "name": "Raymond James Stadium",
      "lat": 27.9759,
      "lng": -82.5033
    },
    "missingVenue": false,
    "division": "nfl"
  },
  {
    "id": "nfl-401872938",
    "week": 2,
    "date": "2026-09-20",
    "day": "Sunday",
    "kickoff": "10a",
    "home": "Baltimore Ravens",
    "away": "New Orleans Saints",
    "homeLogo": "https://a.espncdn.com/i/teamlogos/nfl/500/scoreboard/bal.png",
    "awayLogo": "https://a.espncdn.com/i/teamlogos/nfl/500/scoreboard/no.png",
    "venue": {
      "name": "M&T Bank Stadium",
      "lat": 39.278,
      "lng": -76.6227
    },
    "missingVenue": false,
    "division": "nfl"
  },
  {
    "id": "nfl-401872934",
    "week": 2,
    "date": "2026-09-20",
    "day": "Sunday",
    "kickoff": "10a",
    "home": "Houston Texans",
    "away": "Cincinnati Bengals",
    "homeLogo": "https://a.espncdn.com/i/teamlogos/nfl/500/scoreboard/hou.png",
    "awayLogo": "https://a.espncdn.com/i/teamlogos/nfl/500/scoreboard/cin.png",
    "venue": {
      "name": "NRG Stadium",
      "lat": 29.6847,
      "lng": -95.4107
    },
    "missingVenue": false,
    "division": "nfl"
  },
  {
    "id": "nfl-401872940",
    "week": 2,
    "date": "2026-09-20",
    "day": "Sunday",
    "kickoff": "1:05p",
    "home": "Denver Broncos",
    "away": "Jacksonville Jaguars",
    "homeLogo": "https://a.espncdn.com/i/teamlogos/nfl/500/scoreboard/den.png",
    "awayLogo": "https://a.espncdn.com/i/teamlogos/nfl/500/scoreboard/jax.png",
    "venue": {
      "name": "Empower Field at Mile High",
      "lat": 39.7439,
      "lng": -105.0201
    },
    "missingVenue": false,
    "division": "nfl"
  },
  {
    "id": "nfl-401872941",
    "week": 2,
    "date": "2026-09-20",
    "day": "Sunday",
    "kickoff": "1:05p",
    "home": "Los Angeles Chargers",
    "away": "Las Vegas Raiders",
    "homeLogo": "https://a.espncdn.com/i/teamlogos/nfl/500/scoreboard/lac.png",
    "awayLogo": "https://a.espncdn.com/i/teamlogos/nfl/500/scoreboard/lv.png",
    "venue": {
      "name": "SoFi Stadium",
      "lat": 33.9535,
      "lng": -118.3392
    },
    "missingVenue": false,
    "division": "nfl"
  },
  {
    "id": "nfl-401872944",
    "week": 2,
    "date": "2026-09-20",
    "day": "Sunday",
    "kickoff": "1:25p",
    "home": "Dallas Cowboys",
    "away": "Washington Commanders",
    "homeLogo": "https://a.espncdn.com/i/teamlogos/nfl/500/scoreboard/dal.png",
    "awayLogo": "https://a.espncdn.com/i/teamlogos/nfl/500/scoreboard/wsh.png",
    "venue": {
      "name": "AT&T Stadium",
      "lat": 32.7473,
      "lng": -97.0945
    },
    "missingVenue": false,
    "division": "nfl"
  },
  {
    "id": "nfl-401872943",
    "week": 2,
    "date": "2026-09-20",
    "day": "Sunday",
    "kickoff": "1:25p",
    "home": "Arizona Cardinals",
    "away": "Seattle Seahawks",
    "homeLogo": "https://a.espncdn.com/i/teamlogos/nfl/500/scoreboard/ari.png",
    "awayLogo": "https://a.espncdn.com/i/teamlogos/nfl/500/scoreboard/sea.png",
    "venue": {
      "name": "State Farm Stadium",
      "lat": 33.5276,
      "lng": -112.2626
    },
    "missingVenue": false,
    "division": "nfl"
  },
  {
    "id": "nfl-401872942",
    "week": 2,
    "date": "2026-09-20",
    "day": "Sunday",
    "kickoff": "1:25p",
    "home": "San Francisco 49ers",
    "away": "Miami Dolphins",
    "homeLogo": "https://a.espncdn.com/i/teamlogos/nfl/500/scoreboard/sf.png",
    "awayLogo": "https://a.espncdn.com/i/teamlogos/nfl/500/scoreboard/mia.png",
    "venue": {
      "name": "Levi's Stadium",
      "lat": 37.403,
      "lng": -121.9697
    },
    "missingVenue": false,
    "division": "nfl"
  },
  {
    "id": "nfl-401872945",
    "week": 2,
    "date": "2026-09-21",
    "day": "Monday",
    "kickoff": "5:20p",
    "home": "Kansas City Chiefs",
    "away": "Indianapolis Colts",
    "homeLogo": "https://a.espncdn.com/i/teamlogos/nfl/500/scoreboard/kc.png",
    "awayLogo": "https://a.espncdn.com/i/teamlogos/nfl/500/scoreboard/ind.png",
    "venue": {
      "name": "GEHA Field at Arrowhead Stadium",
      "lat": 39.0489,
      "lng": -94.4839
    },
    "missingVenue": false,
    "division": "nfl"
  },
  {
    "id": "nfl-401872947",
    "week": 2,
    "date": "2026-09-22",
    "day": "Tuesday",
    "kickoff": "5:15p",
    "home": "Los Angeles Rams",
    "away": "New York Giants",
    "homeLogo": "https://a.espncdn.com/i/teamlogos/nfl/500/scoreboard/lar.png",
    "awayLogo": "https://a.espncdn.com/i/teamlogos/nfl/500/scoreboard/nyg.png",
    "venue": {
      "name": "SoFi Stadium",
      "lat": 33.9535,
      "lng": -118.3392
    },
    "missingVenue": false,
    "division": "nfl"
  }
]