[
  {
    "id": "2025-ncaa-401767448",
    "sourceId": 401767448,
    "week": 7,
    "date": "2025-10-11",
    "day": "Saturday",
    "kickoff": "10a",
    "home": "Indiana State",
    "away": "South Dakota",
    "homeDivision": "fcs",
    "awayDivision": "fcs",
    "homeLogo": null,
    "awayLogo": null,
    "venue": {
      "name": "Memorial Stadium",
      "lat": 38.9628,
      "lng": -95.2464
    },
    "missingVenue": false,
    "division": "fcs"
  },
  {
    "id": "2025-ncaa-401767511",
    "sourceId": 401767511,
    "week": 7,
    "date": "2025-10-11",
    "day": "Saturday",
    "kickoff": "12:30p",
    "home": "North Dakota State",
    "away": "Southern Illinois",
    "homeDivision": "fcs",
    "awayDivision": "fcs",
    "homeLogo": null,
    "awayLogo": null,
    "venue": {
      "name": "Fargodome",
      "lat": 46.9028,
      "lng": -96.8013
    },
    "missingVenue": false,
    "division": "fcs"
  },
  {
    "id": "2025-ncaa-401767079",
    "sourceId": 401767079,
    "week": 7,
    "date": "2025-10-11",
    "day": "Saturday",
    "kickoff": "1p",
    "home": "Montana",
    "away": "Cal Poly",
    "homeDivision": "fcs",
    "awayDivision": "fcs",
    "homeLogo": null,
    "awayLogo": null,
    "venue": {
      "name": "Washington-Grizzly Stadium",
      "lat": 46.8601,
      "lng": -113.9845
    },
    "missingVenue": false,
    "division": "fcs"
  },
  {
    "id": "2025-ncaa-401767622",
    "sourceId": 401767622,
    "week": 7,
    "date": "2025-10-11",
    "day": "Saturday",
    "kickoff": "2p",
    "home": "San Diego",
    "away": "Drake",
    "homeDivision": "fcs",
    "awayDivision": "fcs",
    "homeLogo": null,
    "awayLogo": null,
    "venue": {
      "name": "Torero Stadium",
      "lat": 32.7741,
      "lng": -117.1833
    },
    "missingVenue": false,
    "division": "fcs"
  },
  {
    "id": "2025-ncaa-401767470",
    "sourceId": 401767470,
    "week": 7,
    "date": "2025-10-11",
    "day": "Saturday",
    "kickoff": "4p",
    "home": "Houston Christian",
    "away": "Northwestern State",
    "homeDivision": "fcs",
    "awayDivision": "fcs",
    "homeLogo": null,
    "awayLogo": null,
    "venue": {
      "name": "Husky Stadium",
      "lat": 47.6504,
      "lng": -122.3016
    },
    "missingVenue": false,
    "division": "fcs"
  }
]