[
  {
    "id": "2025-fbs-401752703",
    "week": 3,
    "date": "2025-09-13",
    "day": "Saturday",
    "kickoff": "9a",
    "home": "Temple",
    "away": "Oklahoma",
    "homeLogo": null,
    "awayLogo": null,
    "venue": {
      "name": "Lincoln Financial Field",
      "lat": 39.9008,
      "lng": -75.1675
    },
    "division": "fbs"
  },
  {
    "id": "2025-fbs-401752702",
    "week": 3,
    "date": "2025-09-13",
    "day": "Saturday",
    "kickoff": "10a",
    "home": "Missouri",
    "away": "Louisiana",
    "homeLogo": null,
    "awayLogo": null,
    "venue": {
      "name": "War Memorial Stadium",
      "lat": 41.307,
      "lng": -105.5677
    },
    "division": "fbs"
  },
  {
    "id": "2025-fbs-401752834",
    "week": 3,
    "date": "2025-09-13",
    "day": "Saturday",
    "kickoff": "12:30p",
    "home": "Michigan State",
    "away": "Youngstown State",
    "homeLogo": null,
    "awayLogo": null,
    "venue": {
      "name": "Spartan Stadium",
      "lat": 37.3975,
      "lng": -121.8635
    },
    "division": "fbs"
  },
  {
    "id": "2025-fbs-401752938",
    "week": 3,
    "date": "2025-09-13",
    "day": "Saturday",
    "kickoff": "12:30p",
    "home": "Texas Tech",
    "away": "Oregon State",
    "homeLogo": null,
    "awayLogo": null,
    "venue": {
      "name": "AT&T Stadium",
      "lat": 32.7473,
      "lng": -97.0945
    },
    "division": "fbs"
  },
  {
    "id": "2025-fbs-401754535",
    "week": 3,
    "date": "2025-09-13",
    "day": "Saturday",
    "kickoff": "1:30p",
    "home": "Miami",
    "away": "South Florida",
    "homeLogo": null,
    "awayLogo": null,
    "venue": {
      "name": "Hard Rock Stadium",
      "lat": 25.958,
      "lng": -80.2389
    },
    "division": "fbs"
  },
  {
    "id": "2025-fbs-401756895",
    "week": 3,
    "date": "2025-09-14",
    "day": "Saturday",
    "kickoff": "5p",
    "home": "Wyoming",
    "away": "Utah",
    "homeLogo": null,
    "awayLogo": null,
    "venue": {
      "name": "War Memorial Stadium",
      "lat": 41.307,
      "lng": -105.5677
    },
    "division": "fbs"
  }
]