[
  {
    "id": "2025-fbs-401752836",
    "week": 3,
    "date": "2025-09-12",
    "day": "Friday",
    "kickoff": "3:30p",
    "home": "Indiana",
    "away": "Indiana State",
    "homeLogo": null,
    "awayLogo": null,
    "venue": {
      "name": "Memorial Stadium (Bloomington, IN)",
      "lat": 39.1793,
      "lng": -86.5232
    },
    "division": "fbs"
  },
  {
    "id": "2025-fbs-401754532",
    "week": 3,
    "date": "2025-09-12",
    "day": "Friday",
    "kickoff": "4p",
    "home": "Syracuse",
    "away": "Colgate",
    "homeLogo": null,
    "awayLogo": null,
    "venue": {
      "name": "JMA Wireless Dome",
      "lat": 43.0361,
      "lng": -76.1364
    },
    "division": "fbs"
  },
  {
    "id": "2025-fbs-401756893",
    "week": 3,
    "date": "2025-09-12",
    "day": "Friday",
    "kickoff": "4:30p",
    "home": "Houston",
    "away": "Colorado",
    "homeLogo": null,
    "awayLogo": "https://a.espncdn.com/i/teamlogos/ncaa/500/38.png",
    "venue": {
      "name": "TDECU Stadium",
      "lat": 29.7211,
      "lng": -95.3506
    },
    "division": "fbs"
  },
  {
    "id": "2025-fbs-401756888",
    "week": 3,
    "date": "2025-09-13",
    "day": "Friday",
    "kickoff": "6p",
    "home": "Arizona",
    "away": "Kansas State",
    "homeLogo": null,
    "awayLogo": null,
    "venue": {
      "name": "Arizona Stadium",
      "lat": 32.2287,
      "lng": -110.9489
    },
    "division": "fbs"
  },
  {
    "id": "2025-fbs-401752837",
    "week": 3,
    "date": "2025-09-13",
    "day": "Friday",
    "kickoff": "7p",
    "home": "UCLA",
    "away": "New Mexico",
    "homeLogo": null,
    "awayLogo": "https://a.espncdn.com/i/teamlogos/ncaa/500/167.png",
    "venue": {
      "name": "Rose Bowl",
      "lat": 34.1611,
      "lng": -118.1676
    },
    "division": "fbs"
  },
  {
    "id": "2025-fbs-401752839",
    "week": 3,
    "date": "2025-09-13",
    "day": "Saturday",
    "kickoff": "9a",
    "home": "Michigan",
    "away": "Central Michigan",
    "homeLogo": null,
    "awayLogo": "https://a.espncdn.com/i/teamlogos/ncaa/500/2117.png",
    "venue": {
      "name": "Michigan Stadium",
      "lat": 42.2658,
      "lng": -83.7487
    },
    "division": "fbs"
  },
  {
    "id": "2025-fbs-401752696",
    "week": 3,
    "date": "2025-09-13",
    "day": "Saturday",
    "kickoff": "9a",
    "home": "Alabama",
    "away": "Wisconsin",
    "homeLogo": null,
    "awayLogo": null,
    "venue": {
      "name": "Bryant-Denny Stadium",
      "lat": 33.208,
      "lng": -87.5502
    },
    "division": "fbs"
  },
  {
    "id": "2025-fbs-401752703",
    "week": 3,
    "date": "2025-09-13",
    "day": "Saturday",
    "kickoff": "9a",
    "home": "Temple",
    "away": "Oklahoma",
    "homeLogo": null,
    "awayLogo": null,
    "venue": {
      "name": "Lincoln Financial Field",
      "lat": 39.9008,
      "lng": -75.1675
    },
    "division": "fbs"
  },
  {
    "id": "2025-fbs-401752828",
    "week": 3,
    "date": "2025-09-13",
    "day": "Saturday",
    "kickoff": "9a",
    "home": "Nebraska",
    "away": "Houston Christian",
    "homeLogo": null,
    "awayLogo": null,
    "venue": {
      "name": "Memorial Stadium (Lincoln, NE)",
      "lat": 40.8202,
      "lng": -96.7055
    },
    "division": "fbs"
  },
  {
    "id": "2025-fbs-401752831",
    "week": 3,
    "date": "2025-09-13",
    "day": "Saturday",
    "kickoff": "9a",
    "home": "Northwestern",
    "away": "Oregon",
    "homeLogo": null,
    "awayLogo": null,
    "venue": {
      "name": "Lanny and Sharon Martin Stadium",
      "lat": 34.361,
      "lng": -103.2067
    },
    "division": "fbs"
  },
  {
    "id": "2025-fbs-401752838",
    "week": 3,
    "date": "2025-09-13",
    "day": "Saturday",
    "kickoff": "9a",
    "home": "Maryland",
    "away": "Towson",
    "homeLogo": null,
    "awayLogo": null,
    "venue": {
      "name": "SECU Stadium",
      "lat": 38.9941,
      "lng": -76.948
    },
    "division": "fbs"
  },
  {
    "id": "2025-fbs-401756891",
    "week": 3,
    "date": "2025-09-13",
    "day": "Saturday",
    "kickoff": "9a",
    "home": "Baylor",
    "away": "Samford",
    "homeLogo": null,
    "awayLogo": null,
    "venue": {
      "name": "Lane Stadium",
      "lat": 37.2206,
      "lng": -80.4183
    },
    "division": "fbs"
  },
  {
    "id": "2025-fbs-401752697",
    "week": 3,
    "date": "2025-09-13",
    "day": "Saturday",
    "kickoff": "9:45a",
    "home": "Auburn",
    "away": "South Alabama",
    "homeLogo": null,
    "awayLogo": null,
    "venue": {
      "name": "Jordan-Hare Stadium",
      "lat": 32.6017,
      "lng": -85.4893
    },
    "division": "fbs"
  },
  {
    "id": "2025-fbs-401752702",
    "week": 3,
    "date": "2025-09-13",
    "day": "Saturday",
    "kickoff": "10a",
    "home": "Missouri",
    "away": "Louisiana",
    "homeLogo": null,
    "awayLogo": null,
    "venue": {
      "name": "War Memorial Stadium",
      "lat": 41.307,
      "lng": -105.5677
    },
    "division": "fbs"
  },
  {
    "id": "2025-fbs-401752938",
    "week": 3,
    "date": "2025-09-13",
    "day": "Saturday",
    "kickoff": "12:30p",
    "home": "Texas Tech",
    "away": "Oregon State",
    "homeLogo": null,
    "awayLogo": null,
    "venue": {
      "name": "AT&T Stadium",
      "lat": 32.7473,
      "lng": -97.0945
    },
    "division": "fbs"
  },
  {
    "id": "2025-fbs-401754639",
    "week": 3,
    "date": "2025-09-13",
    "day": "Saturday",
    "kickoff": "12:30p",
    "home": "North Carolina",
    "away": "Richmond",
    "homeLogo": null,
    "awayLogo": null,
    "venue": {
      "name": "Kenan Stadium",
      "lat": 35.9096,
      "lng": -79.0478
    },
    "division": "fbs"
  },
  {
    "id": "2025-fbs-401752833",
    "week": 3,
    "date": "2025-09-13",
    "day": "Saturday",
    "kickoff": "12:30p",
    "home": "Rutgers",
    "away": "Norfolk State",
    "homeLogo": null,
    "awayLogo": null,
    "venue": {
      "name": "SHI Stadium",
      "lat": 40.5139,
      "lng": -74.4647
    },
    "division": "fbs"
  },
  {
    "id": "2025-fbs-401752705",
    "week": 3,
    "date": "2025-09-13",
    "day": "Saturday",
    "kickoff": "12:30p",
    "home": "Tennessee",
    "away": "Georgia",
    "homeLogo": null,
    "awayLogo": null,
    "venue": {
      "name": "Neyland Stadium",
      "lat": 35.9551,
      "lng": -83.9252
    },
    "division": "fbs"
  },
  {
    "id": "2025-fbs-401752835",
    "week": 3,
    "date": "2025-09-13",
    "day": "Saturday",
    "kickoff": "12:30p",
    "home": "Penn State",
    "away": "Villanova",
    "homeLogo": null,
    "awayLogo": null,
    "venue": {
      "name": "Beaver Stadium",
      "lat": 40.8122,
      "lng": -77.8561
    },
    "division": "fbs"
  },
  {
    "id": "2025-fbs-401752834",
    "week": 3,
    "date": "2025-09-13",
    "day": "Saturday",
    "kickoff": "12:30p",
    "home": "Michigan State",
    "away": "Youngstown State",
    "homeLogo": null,
    "awayLogo": null,
    "venue": {
      "name": "Spartan Stadium",
      "lat": 37.3975,
      "lng": -121.8635
    },
    "division": "fbs"
  },
  {
    "id": "2025-fbs-401762467",
    "week": 3,
    "date": "2025-09-13",
    "day": "Saturday",
    "kickoff": "12:30p",
    "home": "UTSA",
    "away": "Incarnate Word",
    "homeLogo": null,
    "awayLogo": null,
    "venue": {
      "name": "Alamodome",
      "lat": 29.4191,
      "lng": -98.4737
    },
    "division": "fbs"
  },
  {
    "id": "2025-fbs-401752949",
    "week": 3,
    "date": "2025-09-13",
    "day": "Saturday",
    "kickoff": "12:30p",
    "home": "North Texas",
    "away": "Washington State",
    "homeLogo": null,
    "awayLogo": null,
    "venue": {
      "name": "DATCU Stadium",
      "lat": 33.2071,
      "lng": -97.1514
    },
    "division": "fbs"
  },
  {
    "id": "2025-fbs-401752706",
    "week": 3,
    "date": "2025-09-13",
    "day": "Saturday",
    "kickoff": "1:15p",
    "home": "Texas",
    "away": "UTEP",
    "homeLogo": "https://a.espncdn.com/i/teamlogos/ncaa/500/251.png",
    "awayLogo": null,
    "venue": {
      "name": "DKR-Texas Memorial Stadium",
      "lat": 30.2839,
      "lng": -97.7325
    },
    "division": "fbs"
  },
  {
    "id": "2025-fbs-401754535",
    "week": 3,
    "date": "2025-09-13",
    "day": "Saturday",
    "kickoff": "1:30p",
    "home": "Miami",
    "away": "South Florida",
    "homeLogo": null,
    "awayLogo": null,
    "venue": {
      "name": "Hard Rock Stadium",
      "lat": 25.958,
      "lng": -80.2389
    },
    "division": "fbs"
  },
  {
    "id": "2025-fbs-401757258",
    "week": 3,
    "date": "2025-09-13",
    "day": "Saturday",
    "kickoff": "2p",
    "home": "Nevada",
    "away": "Middle Tennessee",
    "homeLogo": "https://a.espncdn.com/i/teamlogos/ncaa/500/2440.png",
    "awayLogo": null,
    "venue": {
      "name": "Mackay Stadium",
      "lat": 39.5468,
      "lng": -119.8175
    },
    "division": "fbs"
  },
  {
    "id": "2025-fbs-401757256",
    "week": 3,
    "date": "2025-09-13",
    "day": "Saturday",
    "kickoff": "2p",
    "home": "Bowling Green",
    "away": "Liberty",
    "homeLogo": null,
    "awayLogo": null,
    "venue": {
      "name": "Doyt L. Perry Stadium",
      "lat": 41.375,
      "lng": -83.635
    },
    "division": "fbs"
  },
  {
    "id": "2025-fbs-401754536",
    "week": 3,
    "date": "2025-09-13",
    "day": "Saturday",
    "kickoff": "4p",
    "home": "Virginia Tech",
    "away": "Old Dominion",
    "homeLogo": null,
    "awayLogo": null,
    "venue": {
      "name": "Lane Stadium",
      "lat": 37.2206,
      "lng": -80.4183
    },
    "division": "fbs"
  },
  {
    "id": "2025-fbs-401752827",
    "week": 3,
    "date": "2025-09-13",
    "day": "Saturday",
    "kickoff": "4p",
    "home": "Ohio State",
    "away": "Ohio",
    "homeLogo": null,
    "awayLogo": null,
    "venue": {
      "name": "Ohio Stadium",
      "lat": 40.0018,
      "lng": -83.0197
    },
    "division": "fbs"
  },
  {
    "id": "2025-fbs-401752829",
    "week": 3,
    "date": "2025-09-13",
    "day": "Saturday",
    "kickoff": "4p",
    "home": "Illinois",
    "away": "Western Michigan",
    "homeLogo": null,
    "awayLogo": null,
    "venue": {
      "name": "Memorial Stadium (Champaign, IL)",
      "lat": 40.0993,
      "lng": -88.2358
    },
    "division": "fbs"
  },
  {
    "id": "2025-fbs-401762466",
    "week": 3,
    "date": "2025-09-13",
    "day": "Saturday",
    "kickoff": "4p",
    "home": "Rice",
    "away": "Prairie View A&M",
    "homeLogo": null,
    "awayLogo": null,
    "venue": {
      "name": "Jack Trice Stadium",
      "lat": 42.014,
      "lng": -93.6356
    },
    "division": "fbs"
  },
  {
    "id": "2025-fbs-401752699",
    "week": 3,
    "date": "2025-09-13",
    "day": "Saturday",
    "kickoff": "4:30p",
    "home": "LSU",
    "away": "Florida",
    "homeLogo": null,
    "awayLogo": null,
    "venue": {
      "name": "Tiger Stadium (LA)",
      "lat": 30.4122,
      "lng": -91.1839
    },
    "division": "fbs"
  },
  {
    "id": "2025-fbs-401752830",
    "week": 3,
    "date": "2025-09-13",
    "day": "Saturday",
    "kickoff": "4:30p",
    "home": "Iowa",
    "away": "Massachusetts",
    "homeLogo": null,
    "awayLogo": null,
    "venue": {
      "name": "Kinnick Stadium",
      "lat": 41.6581,
      "lng": -91.5509
    },
    "division": "fbs"
  },
  {
    "id": "2025-fbs-401752698",
    "week": 3,
    "date": "2025-09-13",
    "day": "Saturday",
    "kickoff": "4:30p",
    "home": "Kentucky",
    "away": "Eastern Michigan",
    "homeLogo": null,
    "awayLogo": null,
    "venue": {
      "name": "Kroger Field",
      "lat": 38.022,
      "lng": -84.5037
    },
    "division": "fbs"
  },
  {
    "id": "2025-fbs-401752707",
    "week": 3,
    "date": "2025-09-13",
    "day": "Saturday",
    "kickoff": "4:30p",
    "home": "Notre Dame",
    "away": "Texas A&M",
    "homeLogo": null,
    "awayLogo": null,
    "venue": {
      "name": "Notre Dame Stadium",
      "lat": 41.6997,
      "lng": -86.2347
    },
    "division": "fbs"
  },
  {
    "id": "2025-fbs-401756895",
    "week": 3,
    "date": "2025-09-14",
    "day": "Saturday",
    "kickoff": "5p",
    "home": "Wyoming",
    "away": "Utah",
    "homeLogo": "https://a.espncdn.com/i/teamlogos/ncaa/500/2751.png",
    "awayLogo": "https://a.espncdn.com/i/teamlogos/ncaa/500/254.png",
    "venue": {
      "name": "War Memorial Stadium",
      "lat": 41.307,
      "lng": -105.5677
    },
    "division": "fbs"
  },
  {
    "id": "2025-fbs-401760368",
    "week": 3,
    "date": "2025-09-14",
    "day": "Saturday",
    "kickoff": "6:45p",
    "home": "Utah State",
    "away": "Air Force",
    "homeLogo": "https://a.espncdn.com/i/teamlogos/ncaa/500/328.png",
    "awayLogo": "https://a.espncdn.com/i/teamlogos/ncaa/500/2005.png",
    "venue": {
      "name": "Maverik Stadium",
      "lat": 41.7517,
      "lng": -111.8116
    },
    "division": "fbs"
  },
  {
    "id": "2025-fbs-401760369",
    "week": 3,
    "date": "2025-09-14",
    "day": "Saturday",
    "kickoff": "7p",
    "home": "Fresno State",
    "away": "Southern",
    "homeLogo": "https://a.espncdn.com/i/teamlogos/ncaa/500/278.png",
    "awayLogo": null,
    "venue": {
      "name": "Valley Children's Stadium",
      "lat": 36.8144,
      "lng": -119.758
    },
    "division": "fbs"
  },
  {
    "id": "2025-fbs-401754533",
    "week": 3,
    "date": "2025-09-14",
    "day": "Saturday",
    "kickoff": "7:30p",
    "home": "Stanford",
    "away": "Boston College",
    "homeLogo": "https://a.espncdn.com/i/teamlogos/ncaa/500/24.png",
    "awayLogo": null,
    "venue": {
      "name": "Stanford Stadium",
      "lat": 37.4344,
      "lng": -122.1614
    },
    "division": "fbs"
  },
  {
    "id": "2025-fbs-401752840",
    "week": 3,
    "date": "2025-09-14",
    "day": "Saturday",
    "kickoff": "7:30p",
    "home": "California",
    "away": "Minnesota",
    "homeLogo": null,
    "awayLogo": null,
    "venue": {
      "name": "California Memorial Stadium",
      "lat": 37.8713,
      "lng": -122.2507
    },
    "division": "fbs"
  },
  {
    "id": "2025-fbs-401760370",
    "week": 3,
    "date": "2025-09-14",
    "day": "Saturday",
    "kickoff": "8:59p",
    "home": "Hawai'i",
    "away": "Portland State",
    "homeLogo": "https://a.espncdn.com/i/teamlogos/ncaa/500/62.png",
    "awayLogo": null,
    "venue": {
      "name": "Clarence T.C. Ching Athletics Complex",
      "lat": 21.294,
      "lng": -157.818
    },
    "division": "fbs"
  }
]