[
  {
    "id": "2025-fbs-401752904",
    "week": 12,
    "date": "2025-11-15",
    "day": "Friday",
    "kickoff": "6p",
    "home": "Oregon",
    "away": "Minnesota",
    "homeLogo": null,
    "awayLogo": null,
    "venue": {
      "name": "Autzen Stadium",
      "lat": 44.0584,
      "lng": -123.0681
    },
    "division": "fbs"
  },
  {
    "id": "2025-fbs-401754597",
    "week": 12,
    "date": "2025-11-15",
    "day": "Saturday",
    "kickoff": "9a",
    "home": "Pittsburgh",
    "away": "Notre Dame",
    "homeLogo": null,
    "awayLogo": null,
    "venue": {
      "name": "Acrisure Stadium",
      "lat": 40.4468,
      "lng": -80.0158
    },
    "division": "fbs"
  },
  {
    "id": "2025-fbs-401756953",
    "week": 12,
    "date": "2025-11-15",
    "day": "Saturday",
    "kickoff": "12:30p",
    "home": "Texas Tech",
    "away": "UCF",
    "homeLogo": null,
    "awayLogo": null,
    "venue": {
      "name": "AT&T Stadium",
      "lat": 32.7473,
      "lng": -97.0945
    },
    "division": "fbs"
  },
  {
    "id": "2025-fbs-401754595",
    "week": 12,
    "date": "2025-11-15",
    "day": "Saturday",
    "kickoff": "12:30p",
    "home": "Miami",
    "away": "NC State",
    "homeLogo": null,
    "awayLogo": null,
    "venue": {
      "name": "Hard Rock Stadium",
      "lat": 25.958,
      "lng": -80.2389
    },
    "division": "fbs"
  },
  {
    "id": "2025-fbs-401752903",
    "week": 12,
    "date": "2025-11-15",
    "day": "Saturday",
    "kickoff": "12:30p",
    "home": "Michigan State",
    "away": "Penn State",
    "homeLogo": null,
    "awayLogo": null,
    "venue": {
      "name": "Spartan Stadium",
      "lat": 37.3975,
      "lng": -121.8635
    },
    "division": "fbs"
  },
  {
    "id": "2025-fbs-401760414",
    "week": 12,
    "date": "2025-11-16",
    "day": "Saturday",
    "kickoff": "4p",
    "home": "UNLV",
    "away": "Utah State",
    "homeLogo": null,
    "awayLogo": null,
    "venue": {
      "name": "Allegiant Stadium",
      "lat": 36.0909,
      "lng": -115.1833
    },
    "division": "fbs"
  },
  {
    "id": "2025-fbs-401752770",
    "week": 12,
    "date": "2025-11-16",
    "day": "Saturday",
    "kickoff": "4:45p",
    "home": "Missouri",
    "away": "Mississippi State",
    "homeLogo": null,
    "awayLogo": null,
    "venue": {
      "name": "War Memorial Stadium",
      "lat": 41.307,
      "lng": -105.5677
    },
    "division": "fbs"
  }
]