[
  {
    "id": "2025-ncaa-401752781",
    "sourceId": 401752781,
    "sourceWeek": 13,
    "week": 14,
    "date": "2025-11-22",
    "day": "Saturday",
    "kickoff": "5p",
    "home": "Texas A&M",
    "away": "Samford",
    "homeDivision": "fbs",
    "awayDivision": "fcs",
    "homeLogo": null,
    "awayLogo": null,
    "venue": {
      "name": "Kyle Field",
      "lat": 30.61,
      "lng": -96.34
    },
    "missingVenue": false,
    "division": "fbs"
  },
  {
    "id": "2025-ncaa-401767453",
    "sourceId": 401767453,
    "sourceWeek": 13,
    "week": 14,
    "date": "2025-11-22",
    "day": "Saturday",
    "kickoff": "6p",
    "home": "Indiana State",
    "away": "Murray State",
    "homeDivision": "fcs",
    "awayDivision": "fcs",
    "homeLogo": null,
    "awayLogo": null,
    "venue": {
      "name": "Memorial Stadium",
      "lat": 38.9628,
      "lng": -95.2464
    },
    "missingVenue": false,
    "division": "fcs"
  },
  {
    "id": "2025-ncaa-401767367",
    "sourceId": 401767367,
    "sourceWeek": 13,
    "week": 14,
    "date": "2025-11-22",
    "day": "Saturday",
    "kickoff": "6p",
    "home": "Alabama State",
    "away": "Arkansas-Pine Bluff",
    "homeDivision": "fcs",
    "awayDivision": "fcs",
    "homeLogo": null,
    "awayLogo": null,
    "venue": {
      "name": "Hornet Stadium",
      "lat": 38.5598,
      "lng": -121.4242
    },
    "missingVenue": false,
    "division": "fcs"
  },
  {
    "id": "2025-ncaa-401767104",
    "sourceId": 401767104,
    "sourceWeek": 13,
    "week": 14,
    "date": "2025-11-22",
    "day": "Saturday",
    "kickoff": "7p",
    "home": "Montana",
    "away": "Montana State",
    "homeDivision": "fcs",
    "awayDivision": "fcs",
    "homeLogo": null,
    "awayLogo": null,
    "venue": {
      "name": "Washington-Grizzly Stadium",
      "lat": 46.8601,
      "lng": -113.9845
    },
    "missingVenue": false,
    "division": "fcs"
  },
  {
    "id": "2025-ncaa-401767125",
    "sourceId": 401767125,
    "sourceWeek": 13,
    "week": 14,
    "date": "2025-11-22",
    "day": "Saturday",
    "kickoff": "7p",
    "home": "Northern Colorado",
    "away": "Portland State",
    "homeDivision": "fcs",
    "awayDivision": "fcs",
    "homeLogo": null,
    "awayLogo": null,
    "venue": {
      "name": "Nottingham Field",
      "lat": 40.4071,
      "lng": -104.7017
    },
    "missingVenue": false,
    "division": "fcs"
  },
  {
    "id": "2025-ncaa-401752773",
    "sourceId": 401752773,
    "sourceWeek": 13,
    "week": 14,
    "date": "2025-11-22",
    "day": "Saturday",
    "kickoff": "7p",
    "home": "Alabama",
    "away": "Eastern Illinois",
    "homeDivision": "fbs",
    "awayDivision": "fcs",
    "homeLogo": null,
    "awayLogo": null,
    "venue": {
      "name": "Bryant-Denny Stadium",
      "lat": 33.208,
      "lng": -87.5502
    },
    "missingVenue": false,
    "division": "fbs"
  },
  {
    "id": "2025-ncaa-401752774",
    "sourceId": 401752774,
    "sourceWeek": 13,
    "week": 14,
    "date": "2025-11-22",
    "day": "Saturday",
    "kickoff": "7p",
    "home": "Auburn",
    "away": "Mercer",
    "homeDivision": "fbs",
    "awayDivision": "fcs",
    "homeLogo": null,
    "awayLogo": null,
    "venue": {
      "name": "Jordan-Hare Stadium",
      "lat": 32.6017,
      "lng": -85.4893
    },
    "missingVenue": false,
    "division": "fbs"
  },
  {
    "id": "2025-ncaa-401767475",
    "sourceId": 401767475,
    "sourceWeek": 13,
    "week": 14,
    "date": "2025-11-22",
    "day": "Saturday",
    "kickoff": "8p",
    "home": "Houston Christian",
    "away": "Incarnate Word",
    "homeDivision": "fcs",
    "awayDivision": "fcs",
    "homeLogo": null,
    "awayLogo": null,
    "venue": {
      "name": "Husky Stadium",
      "lat": 47.6504,
      "lng": -122.3016
    },
    "missingVenue": false,
    "division": "fcs"
  },
  {
    "id": "2025-ncaa-401767515",
    "sourceId": 401767515,
    "sourceWeek": 13,
    "week": 14,
    "date": "2025-11-22",
    "day": "Saturday",
    "kickoff": "8:30p",
    "home": "North Dakota State",
    "away": "St. Thomas (MN)",
    "homeDivision": "fcs",
    "awayDivision": "fcs",
    "homeLogo": null,
    "awayLogo": null,
    "venue": {
      "name": "Fargodome",
      "lat": 46.9028,
      "lng": -96.8013
    },
    "missingVenue": false,
    "division": "fcs"
  },
  {
    "id": "2025-ncaa-401754605",
    "sourceId": 401754605,
    "sourceWeek": 13,
    "week": 14,
    "date": "2025-11-22",
    "day": "Saturday",
    "kickoff": "9:30p",
    "home": "Clemson",
    "away": "Furman",
    "homeDivision": "fbs",
    "awayDivision": "fcs",
    "homeLogo": null,
    "awayLogo": null,
    "venue": {
      "name": "Memorial Stadium (Clemson, SC)",
      "lat": 34.6784,
      "lng": -82.8444
    },
    "missingVenue": false,
    "division": "fbs"
  },
  {
    "id": "2025-ncaa-401767068",
    "sourceId": 401767068,
    "sourceWeek": 13,
    "week": 14,
    "date": "2025-11-22",
    "day": "Saturday",
    "kickoff": "10p",
    "home": "Cal Poly",
    "away": "Eastern Washington",
    "homeDivision": "fcs",
    "awayDivision": "fcs",
    "homeLogo": "https://a.espncdn.com/i/teamlogos/ncaa/500/13.png",
    "awayLogo": null,
    "venue": {
      "name": "Alex G. Spanos Stadium",
      "lat": 35.3005,
      "lng": -120.6587
    },
    "missingVenue": false,
    "division": "fcs"
  },
  {
    "id": "2025-ncaa-401767368",
    "sourceId": 401767368,
    "sourceWeek": 14,
    "week": 14,
    "date": "2025-11-27",
    "day": "Thursday",
    "kickoff": "8p",
    "home": "Alabama State",
    "away": "Tuskegee",
    "homeDivision": "fcs",
    "awayDivision": "d2",
    "homeLogo": null,
    "awayLogo": null,
    "venue": {
      "name": "Hornet Stadium",
      "lat": 38.5598,
      "lng": -121.4242
    },
    "missingVenue": false,
    "division": "fcs"
  }
]