[
  {
    "id": "2026-ncaa-401868116",
    "sourceId": 401868116,
    "sourceWeek": 10,
    "week": 11,
    "date": "2026-11-07",
    "day": "Saturday",
    "kickoff": "12p",
    "home": "Montana",
    "away": "Portland State",
    "homeDivision": "fcs",
    "awayDivision": "fcs",
    "homeLogo": null,
    "awayLogo": null,
    "venue": {
      "name": "Washington-Grizzly Stadium",
      "lat": 46.8601,
      "lng": -113.9845
    },
    "missingVenue": false,
    "division": "fcs"
  },
  {
    "id": "2026-ncaa-401868200",
    "sourceId": 401868200,
    "sourceWeek": 10,
    "week": 11,
    "date": "2026-11-07",
    "day": "Saturday",
    "kickoff": "12:30p",
    "home": "Tennessee State",
    "away": "Southeast Missouri State",
    "homeDivision": "fcs",
    "awayDivision": "fcs",
    "homeLogo": null,
    "awayLogo": null,
    "venue": {
      "name": "Nissan Stadium",
      "lat": 36.1665,
      "lng": -86.7713
    },
    "missingVenue": false,
    "division": "fcs"
  },
  {
    "id": "2026-ncaa-401868082",
    "sourceId": 401868082,
    "sourceWeek": 10,
    "week": 11,
    "date": "2026-11-07",
    "day": "Saturday",
    "kickoff": "2p",
    "home": "Cal Poly",
    "away": "Northern Arizona",
    "homeDivision": "fcs",
    "awayDivision": "fcs",
    "homeLogo": "https://a.espncdn.com/i/teamlogos/ncaa/500/13.png",
    "awayLogo": null,
    "venue": {
      "name": "Alex G. Spanos Stadium",
      "lat": 35.3005,
      "lng": -120.6587
    },
    "missingVenue": false,
    "division": "fcs"
  },
  {
    "id": "2026-ncaa-401869140",
    "sourceId": 401869140,
    "sourceWeek": 10,
    "week": 11,
    "date": "2026-11-07",
    "day": "Saturday",
    "kickoff": "2p",
    "home": "Houston Christian",
    "away": "McNeese",
    "homeDivision": "fcs",
    "awayDivision": "fcs",
    "homeLogo": null,
    "awayLogo": null,
    "venue": {
      "name": "Husky Stadium",
      "lat": 47.6504,
      "lng": -122.3016
    },
    "missingVenue": false,
    "division": "fcs"
  },
  {
    "id": "2026-ncaa-401868108",
    "sourceId": 401868108,
    "sourceWeek": 10,
    "week": 11,
    "date": "2026-11-07",
    "day": "Saturday",
    "kickoff": "3p",
    "home": "Idaho State",
    "away": "Montana State",
    "homeDivision": "fcs",
    "awayDivision": "fcs",
    "homeLogo": null,
    "awayLogo": null,
    "venue": {
      "name": "Holt Arena",
      "lat": 42.8723,
      "lng": -112.4341
    },
    "missingVenue": false,
    "division": "fcs"
  },
  {
    "id": "2026-ncaa-401867862",
    "sourceId": 401867862,
    "sourceWeek": 10,
    "week": 11,
    "date": "2026-11-07",
    "day": "Saturday",
    "kickoff": "3p",
    "home": "Indiana State",
    "away": "Southern Illinois",
    "homeDivision": "fcs",
    "awayDivision": "fcs",
    "homeLogo": null,
    "awayLogo": null,
    "venue": {
      "name": "Memorial Stadium",
      "lat": 38.9628,
      "lng": -95.2464
    },
    "missingVenue": false,
    "division": "fcs"
  }
]