[
  {
    "id": "2025-d3-401834154",
    "week": 12,
    "date": "2025-11-15",
    "day": "Saturday",
    "kickoff": "8a",
    "home": "Austin",
    "away": "CENTENARY",
    "homeLogo": null,
    "awayLogo": null,
    "venue": {
      "name": "War Memorial Stadium",
      "lat": 41.307,
      "lng": -105.5677
    },
    "division": "d3"
  },
  {
    "id": "2025-d3-401777171",
    "week": 12,
    "date": "2025-11-15",
    "day": "Saturday",
    "kickoff": "12p",
    "home": "Whitworth",
    "away": "Puget Sound",
    "homeLogo": "https://cdn.prestosports.com/action/cdn/logos/id/ekkb9ky91gzlit7x.png",
    "awayLogo": "https://cdn.prestosports.com/action/cdn/logos/id/wpoqmrhctdrju4jh.png",
    "venue": {
      "name": "Pine Bowl",
      "lat": 47.7523,
      "lng": -117.4202
    },
    "division": "d3"
  },
  {
    "id": "2025-d3-401777152",
    "week": 12,
    "date": "2025-11-15",
    "day": "Saturday",
    "kickoff": "1p",
    "home": "Linfield College",
    "away": "Willamette",
    "homeLogo": "https://cdn.prestosports.com/action/cdn/logos/id/8ab4hlzfjvtul4nx.png",
    "awayLogo": "https://lh3.googleusercontent.com/6tOuPbn-4tztWUJrhNcODPR25WMo6bats7oaCuwY5KNzSTZneTGpKn-Z6PvWnJ0lNSE8hu7916kIwJhR3qYlbVWPYUo3NLgS2EM",
    "venue": {
      "name": "Maxwell Field",
      "lat": 45.2099,
      "lng": -123.1987
    },
    "division": "d3"
  },
  {
    "id": "2025-d3-401777158",
    "week": 12,
    "date": "2025-11-15",
    "day": "Saturday",
    "kickoff": "1p",
    "home": "Pacific (OR)",
    "away": "Lewis & Clark College",
    "homeLogo": "https://cdn.prestosports.com/action/cdn/logos/id/lkxbjwugyaf69m59.png",
    "awayLogo": "https://cdn.prestosports.com/action/cdn/logos/id/2i62768ao3nlh5wq.png",
    "venue": {
      "name": "Hanson Stadium",
      "lat": 45.5195,
      "lng": -123.1107
    },
    "division": "d3"
  },
  {
    "id": "2025-d3-401777146",
    "week": 12,
    "date": "2025-11-15",
    "day": "Saturday",
    "kickoff": "1p",
    "home": "Pacific Lutheran",
    "away": "NEWBERG",
    "homeLogo": "https://cdn.prestosports.com/action/cdn/logos/id/bi1umnuk45dh7ppn.png",
    "awayLogo": "https://cdn.prestosports.com/action/cdn/logos/id/mi23750dj6i6tf21.png",
    "venue": {
      "name": "Sparks Stadium",
      "lat": 47.1872,
      "lng": -122.3005
    },
    "division": "d3"
  },
  {
    "id": "2025-d3-401834155",
    "week": 12,
    "date": "2025-11-15",
    "day": "Saturday",
    "kickoff": "1p",
    "home": "Hendrix College",
    "away": "LYONCOLL",
    "homeLogo": null,
    "awayLogo": null,
    "venue": {
      "name": "War Memorial Stadium",
      "lat": 41.307,
      "lng": -105.5677
    },
    "division": "d3"
  },
  {
    "id": "2025-d3-401834156",
    "week": 12,
    "date": "2025-11-16",
    "day": "Saturday",
    "kickoff": "6p",
    "home": "Texas Lutheran",
    "away": "McMurry",
    "homeLogo": null,
    "awayLogo": null,
    "venue": {
      "name": "War Memorial Stadium",
      "lat": 41.307,
      "lng": -105.5677
    },
    "division": "d3"
  }
]