[
  {
    "id": "2026-ncaa-401860923",
    "sourceId": 401860923,
    "sourceWeek": 7,
    "week": 8,
    "date": "2026-10-16",
    "day": "Friday",
    "kickoff": "5p",
    "home": "Texas State",
    "away": "Colorado State",
    "homeDivision": "fbs",
    "awayDivision": "fbs",
    "homeLogo": null,
    "awayLogo": "https://a.espncdn.com/i/teamlogos/ncaa/500/36.png",
    "venue": {
      "name": "Bobcat Stadium (TX)",
      "lat": 29.8911,
      "lng": -97.9256
    },
    "missingVenue": false,
    "division": "fbs"
  },
  {
    "id": "2026-ncaa-401858494",
    "sourceId": 401858494,
    "sourceWeek": 7,
    "week": 8,
    "date": "2026-10-17",
    "day": "Saturday",
    "kickoff": "TBD",
    "home": "UCLA",
    "away": "Wisconsin",
    "homeDivision": "fbs",
    "awayDivision": "fbs",
    "homeLogo": null,
    "awayLogo": null,
    "venue": {
      "name": "Rose Bowl",
      "lat": 34.1611,
      "lng": -118.1676
    },
    "missingVenue": false,
    "division": "fbs"
  },
  {
    "id": "2026-ncaa-401856809",
    "sourceId": 401856809,
    "sourceWeek": 7,
    "week": 8,
    "date": "2026-10-17",
    "day": "Saturday",
    "kickoff": "TBD",
    "home": "BYU",
    "away": "Notre Dame",
    "homeDivision": "fbs",
    "awayDivision": "fbs",
    "homeLogo": null,
    "awayLogo": null,
    "venue": {
      "name": "LaVell Edwards Stadium",
      "lat": 40.2578,
      "lng": -111.6563
    },
    "missingVenue": false,
    "division": "fbs"
  },
  {
    "id": "2026-ncaa-401858489",
    "sourceId": 401858489,
    "sourceWeek": 7,
    "week": 8,
    "date": "2026-10-17",
    "day": "Saturday",
    "kickoff": "TBD",
    "home": "Maryland",
    "away": "Rutgers",
    "homeDivision": "fbs",
    "awayDivision": "fbs",
    "homeLogo": null,
    "awayLogo": null,
    "venue": {
      "name": "SECU Stadium",
      "lat": 38.9941,
      "lng": -76.948
    },
    "missingVenue": false,
    "division": "fbs"
  },
  {
    "id": "2026-ncaa-401866444",
    "sourceId": 401866444,
    "sourceWeek": 7,
    "week": 8,
    "date": "2026-10-17",
    "day": "Saturday",
    "kickoff": "TBD",
    "home": "Eastern Michigan",
    "away": "Toledo",
    "homeDivision": "fbs",
    "awayDivision": "fbs",
    "homeLogo": null,
    "awayLogo": null,
    "venue": {
      "name": "Rynearson Stadium",
      "lat": 42.2473,
      "lng": -83.6253
    },
    "missingVenue": false,
    "division": "fbs"
  },
  {
    "id": "2026-ncaa-401866441",
    "sourceId": 401866441,
    "sourceWeek": 7,
    "week": 8,
    "date": "2026-10-17",
    "day": "Saturday",
    "kickoff": "TBD",
    "home": "Bowling Green",
    "away": "Ball State",
    "homeDivision": "fbs",
    "awayDivision": "fbs",
    "homeLogo": null,
    "awayLogo": null,
    "venue": {
      "name": "Doyt L. Perry Stadium",
      "lat": 41.375,
      "lng": -83.635
    },
    "missingVenue": false,
    "division": "fbs"
  },
  {
    "id": "2026-ncaa-401856719",
    "sourceId": 401856719,
    "sourceWeek": 7,
    "week": 8,
    "date": "2026-10-17",
    "day": "Saturday",
    "kickoff": "TBD",
    "home": "Georgia",
    "away": "Auburn",
    "homeDivision": "fbs",
    "awayDivision": "fbs",
    "homeLogo": null,
    "awayLogo": null,
    "venue": {
      "name": "Sanford Stadium",
      "lat": 33.9498,
      "lng": -83.3732
    },
    "missingVenue": false,
    "division": "fbs"
  },
  {
    "id": "2026-ncaa-401866445",
    "sourceId": 401866445,
    "sourceWeek": 7,
    "week": 8,
    "date": "2026-10-17",
    "day": "Saturday",
    "kickoff": "TBD",
    "home": "Sacramento State",
    "away": "Ohio",
    "homeDivision": "fbs",
    "awayDivision": "fbs",
    "homeLogo": null,
    "awayLogo": null,
    "venue": {
      "name": "Hornet Stadium",
      "lat": 38.5598,
      "lng": -121.4242
    },
    "missingVenue": false,
    "division": "fbs"
  },
  {
    "id": "2026-ncaa-401858264",
    "sourceId": 401858264,
    "sourceWeek": 7,
    "week": 8,
    "date": "2026-10-17",
    "day": "Saturday",
    "kickoff": "TBD",
    "home": "Virginia Tech",
    "away": "Georgia Tech",
    "homeDivision": "fbs",
    "awayDivision": "fbs",
    "homeLogo": null,
    "awayLogo": null,
    "venue": {
      "name": "Lane Stadium",
      "lat": 37.2206,
      "lng": -80.4183
    },
    "missingVenue": false,
    "division": "fbs"
  },
  {
    "id": "2026-ncaa-401856833",
    "sourceId": 401856833,
    "sourceWeek": 7,
    "week": 8,
    "date": "2026-10-17",
    "day": "Saturday",
    "kickoff": "TBD",
    "home": "Colorado",
    "away": "Utah",
    "homeDivision": "fbs",
    "awayDivision": "fbs",
    "homeLogo": "https://a.espncdn.com/i/teamlogos/ncaa/500/38.png",
    "awayLogo": "https://a.espncdn.com/i/teamlogos/ncaa/500/254.png",
    "venue": {
      "name": "Folsom Field",
      "lat": 40.0096,
      "lng": -105.2644
    },
    "missingVenue": false,
    "division": "fbs"
  },
  {
    "id": "2026-ncaa-401856726",
    "sourceId": 401856726,
    "sourceWeek": 7,
    "week": 8,
    "date": "2026-10-17",
    "day": "Saturday",
    "kickoff": "TBD",
    "home": "Vanderbilt",
    "away": "Arkansas",
    "homeDivision": "fbs",
    "awayDivision": "fbs",
    "homeLogo": null,
    "awayLogo": null,
    "venue": {
      "name": "FirstBank Stadium",
      "lat": 36.0103,
      "lng": -86.8051
    },
    "missingVenue": false,
    "division": "fbs"
  },
  {
    "id": "2026-ncaa-401862806",
    "sourceId": 401862806,
    "sourceWeek": 7,
    "week": 8,
    "date": "2026-10-17",
    "day": "Saturday",
    "kickoff": "TBD",
    "home": "South Florida",
    "away": "Kent State",
    "homeDivision": "fbs",
    "awayDivision": "fbs",
    "homeLogo": null,
    "awayLogo": null,
    "venue": {
      "name": "Raymond James Stadium",
      "lat": 27.9759,
      "lng": -82.5033
    },
    "missingVenue": false,
    "division": "fbs"
  },
  {
    "id": "2026-ncaa-401856831",
    "sourceId": 401856831,
    "sourceWeek": 7,
    "week": 8,
    "date": "2026-10-17",
    "day": "Saturday",
    "kickoff": "TBD",
    "home": "Houston",
    "away": "Oklahoma State",
    "homeDivision": "fbs",
    "awayDivision": "fbs",
    "homeLogo": null,
    "awayLogo": null,
    "venue": {
      "name": "TDECU Stadium",
      "lat": 29.7211,
      "lng": -95.3506
    },
    "missingVenue": false,
    "division": "fbs"
  },
  {
    "id": "2026-ncaa-401856724",
    "sourceId": 401856724,
    "sourceWeek": 7,
    "week": 8,
    "date": "2026-10-17",
    "day": "Saturday",
    "kickoff": "TBD",
    "home": "Texas",
    "away": "Florida",
    "homeDivision": "fbs",
    "awayDivision": "fbs",
    "homeLogo": "https://a.espncdn.com/i/teamlogos/ncaa/500/251.png",
    "awayLogo": null,
    "venue": {
      "name": "DKR-Texas Memorial Stadium",
      "lat": 30.2839,
      "lng": -97.7325
    },
    "missingVenue": false,
    "division": "fbs"
  },
  {
    "id": "2026-ncaa-401858491",
    "sourceId": 401858491,
    "sourceWeek": 7,
    "week": 8,
    "date": "2026-10-17",
    "day": "Saturday",
    "kickoff": "TBD",
    "home": "Michigan State",
    "away": "Northwestern",
    "homeDivision": "fbs",
    "awayDivision": "fbs",
    "homeLogo": null,
    "awayLogo": null,
    "venue": {
      "name": "Spartan Stadium",
      "lat": 37.3975,
      "lng": -121.8635
    },
    "missingVenue": false,
    "division": "fbs"
  },
  {
    "id": "2026-ncaa-401858263",
    "sourceId": 401858263,
    "sourceWeek": 7,
    "week": 8,
    "date": "2026-10-17",
    "day": "Saturday",
    "kickoff": "TBD",
    "home": "Miami",
    "away": "Florida State",
    "homeDivision": "fbs",
    "awayDivision": "fbs",
    "homeLogo": null,
    "awayLogo": null,
    "venue": {
      "name": "Hard Rock Stadium",
      "lat": 25.958,
      "lng": -80.2389
    },
    "missingVenue": false,
    "division": "fbs"
  },
  {
    "id": "2026-ncaa-401858261",
    "sourceId": 401858261,
    "sourceWeek": 7,
    "week": 8,
    "date": "2026-10-17",
    "day": "Saturday",
    "kickoff": "TBD",
    "home": "Clemson",
    "away": "Charleston Southern",
    "homeDivision": "fbs",
    "awayDivision": "fcs",
    "homeLogo": null,
    "awayLogo": null,
    "venue": {
      "name": "Memorial Stadium (Clemson, SC)",
      "lat": 34.6784,
      "lng": -82.8444
    },
    "missingVenue": false,
    "division": "fbs"
  },
  {
    "id": "2026-ncaa-401864523",
    "sourceId": 401864523,
    "sourceWeek": 7,
    "week": 8,
    "date": "2026-10-17",
    "day": "Saturday",
    "kickoff": "TBD",
    "home": "UTEP",
    "away": "San José State",
    "homeDivision": "fbs",
    "awayDivision": "fbs",
    "homeLogo": null,
    "awayLogo": "https://a.espncdn.com/i/teamlogos/ncaa/500/23.png",
    "venue": {
      "name": "Sun Bowl",
      "lat": 31.7688,
      "lng": -106.4992
    },
    "missingVenue": false,
    "division": "fbs"
  },
  {
    "id": "2026-ncaa-401864521",
    "sourceId": 401864521,
    "sourceWeek": 7,
    "week": 8,
    "date": "2026-10-17",
    "day": "Saturday",
    "kickoff": "TBD",
    "home": "Hawai'i",
    "away": "New Mexico",
    "homeDivision": "fbs",
    "awayDivision": "fbs",
    "homeLogo": "https://a.espncdn.com/i/teamlogos/ncaa/500/62.png",
    "awayLogo": "https://a.espncdn.com/i/teamlogos/ncaa/500/167.png",
    "venue": {
      "name": "Clarence T.C. Ching Athletics Complex",
      "lat": 21.294,
      "lng": -157.818
    },
    "missingVenue": false,
    "division": "fbs"
  },
  {
    "id": "2026-ncaa-401858269",
    "sourceId": 401858269,
    "sourceWeek": 7,
    "week": 8,
    "date": "2026-10-17",
    "day": "Saturday",
    "kickoff": "TBD",
    "home": "California",
    "away": "Wake Forest",
    "homeDivision": "fbs",
    "awayDivision": "fbs",
    "homeLogo": null,
    "awayLogo": null,
    "venue": {
      "name": "California Memorial Stadium",
      "lat": 37.8713,
      "lng": -122.2507
    },
    "missingVenue": false,
    "division": "fbs"
  },
  {
    "id": "2026-ncaa-401866443",
    "sourceId": 401866443,
    "sourceWeek": 7,
    "week": 8,
    "date": "2026-10-17",
    "day": "Saturday",
    "kickoff": "TBD",
    "home": "Central Michigan",
    "away": "Western Michigan",
    "homeDivision": "fbs",
    "awayDivision": "fbs",
    "homeLogo": "https://a.espncdn.com/i/teamlogos/ncaa/500/2117.png",
    "awayLogo": null,
    "venue": {
      "name": "Kelly/Shorts Stadium",
      "lat": 43.5779,
      "lng": -84.7738
    },
    "missingVenue": false,
    "division": "fbs"
  },
  {
    "id": "2026-ncaa-401862804",
    "sourceId": 401862804,
    "sourceWeek": 7,
    "week": 8,
    "date": "2026-10-17",
    "day": "Saturday",
    "kickoff": "TBD",
    "home": "UTSA",
    "away": "Navy",
    "homeDivision": "fbs",
    "awayDivision": "fbs",
    "homeLogo": null,
    "awayLogo": null,
    "venue": {
      "name": "Alamodome",
      "lat": 29.4191,
      "lng": -98.4737
    },
    "missingVenue": false,
    "division": "fbs"
  },
  {
    "id": "2026-ncaa-401862803",
    "sourceId": 401862803,
    "sourceWeek": 7,
    "week": 8,
    "date": "2026-10-17",
    "day": "Saturday",
    "kickoff": "TBD",
    "home": "Temple",
    "away": "Charlotte",
    "homeDivision": "fbs",
    "awayDivision": "fbs",
    "homeLogo": null,
    "awayLogo": null,
    "venue": {
      "name": "Lincoln Financial Field",
      "lat": 39.9008,
      "lng": -75.1675
    },
    "missingVenue": false,
    "division": "fbs"
  },
  {
    "id": "2026-ncaa-401858488",
    "sourceId": 401858488,
    "sourceWeek": 7,
    "week": 8,
    "date": "2026-10-17",
    "day": "Saturday",
    "kickoff": "TBD",
    "home": "Indiana",
    "away": "Ohio State",
    "homeDivision": "fbs",
    "awayDivision": "fbs",
    "homeLogo": null,
    "awayLogo": null,
    "venue": {
      "name": "Memorial Stadium (Bloomington, IN)",
      "lat": 39.1793,
      "lng": -86.5232
    },
    "missingVenue": false,
    "division": "fbs"
  },
  {
    "id": "2026-ncaa-401858490",
    "sourceId": 401858490,
    "sourceWeek": 7,
    "week": 8,
    "date": "2026-10-17",
    "day": "Saturday",
    "kickoff": "TBD",
    "home": "Michigan",
    "away": "Penn State",
    "homeDivision": "fbs",
    "awayDivision": "fbs",
    "homeLogo": null,
    "awayLogo": null,
    "venue": {
      "name": "Michigan Stadium",
      "lat": 42.2658,
      "lng": -83.7487
    },
    "missingVenue": false,
    "division": "fbs"
  },
  {
    "id": "2026-ncaa-401858492",
    "sourceId": 401858492,
    "sourceWeek": 7,
    "week": 8,
    "date": "2026-10-17",
    "day": "Saturday",
    "kickoff": "TBD",
    "home": "Oregon",
    "away": "Nebraska",
    "homeDivision": "fbs",
    "awayDivision": "fbs",
    "homeLogo": null,
    "awayLogo": null,
    "venue": {
      "name": "Autzen Stadium",
      "lat": 44.0584,
      "lng": -123.0681
    },
    "missingVenue": false,
    "division": "fbs"
  },
  {
    "id": "2026-ncaa-401856720",
    "sourceId": 401856720,
    "sourceWeek": 7,
    "week": 8,
    "date": "2026-10-17",
    "day": "Saturday",
    "kickoff": "TBD",
    "home": "LSU",
    "away": "Mississippi State",
    "homeDivision": "fbs",
    "awayDivision": "fbs",
    "homeLogo": null,
    "awayLogo": null,
    "venue": {
      "name": "Tiger Stadium (LA)",
      "lat": 30.4122,
      "lng": -91.1839
    },
    "missingVenue": false,
    "division": "fbs"
  },
  {
    "id": "2026-ncaa-401856723",
    "sourceId": 401856723,
    "sourceWeek": 7,
    "week": 8,
    "date": "2026-10-17",
    "day": "Saturday",
    "kickoff": "TBD",
    "home": "Tennessee",
    "away": "Alabama",
    "homeDivision": "fbs",
    "awayDivision": "fbs",
    "homeLogo": null,
    "awayLogo": null,
    "venue": {
      "name": "Neyland Stadium",
      "lat": 35.9551,
      "lng": -83.9252
    },
    "missingVenue": false,
    "division": "fbs"
  },
  {
    "id": "2026-ncaa-401858265",
    "sourceId": 401858265,
    "sourceWeek": 7,
    "week": 8,
    "date": "2026-10-17",
    "day": "Saturday",
    "kickoff": "TBD",
    "home": "Syracuse",
    "away": "Louisville",
    "homeDivision": "fbs",
    "awayDivision": "fbs",
    "homeLogo": null,
    "awayLogo": null,
    "venue": {
      "name": "JMA Wireless Dome",
      "lat": 43.0361,
      "lng": -76.1364
    },
    "missingVenue": false,
    "division": "fbs"
  },
  {
    "id": "2026-ncaa-401856725",
    "sourceId": 401856725,
    "sourceWeek": 7,
    "week": 8,
    "date": "2026-10-17",
    "day": "Saturday",
    "kickoff": "10a",
    "home": "Texas A&M",
    "away": "The Citadel",
    "homeDivision": "fbs",
    "awayDivision": "fcs",
    "homeLogo": null,
    "awayLogo": null,
    "venue": {
      "name": "Kyle Field",
      "lat": 30.61,
      "lng": -96.34
    },
    "missingVenue": false,
    "division": "fbs"
  },
  {
    "id": "2026-ncaa-401864522",
    "sourceId": 401864522,
    "sourceWeek": 7,
    "week": 8,
    "date": "2026-10-17",
    "day": "Saturday",
    "kickoff": "12:30p",
    "home": "Wyoming",
    "away": "Northern Illinois",
    "homeDivision": "fbs",
    "awayDivision": "fbs",
    "homeLogo": "https://a.espncdn.com/i/teamlogos/ncaa/500/2751.png",
    "awayLogo": null,
    "venue": {
      "name": "War Memorial Stadium",
      "lat": 41.307,
      "lng": -105.5677
    },
    "missingVenue": false,
    "division": "fbs"
  },
  {
    "id": "2026-ncaa-401864524",
    "sourceId": 401864524,
    "sourceWeek": 7,
    "week": 8,
    "date": "2026-10-17",
    "day": "Saturday",
    "kickoff": "12:30p",
    "home": "Air Force",
    "away": "UNLV",
    "homeDivision": "fbs",
    "awayDivision": "fbs",
    "homeLogo": "https://a.espncdn.com/i/teamlogos/ncaa/500/2005.png",
    "awayLogo": "https://a.espncdn.com/i/teamlogos/ncaa/500/2439.png",
    "venue": {
      "name": "Falcon Stadium",
      "lat": 38.9967,
      "lng": -104.8436
    },
    "missingVenue": false,
    "division": "fbs"
  },
  {
    "id": "2026-ncaa-401860903",
    "sourceId": 401860903,
    "sourceWeek": 7,
    "week": 8,
    "date": "2026-10-17",
    "day": "Saturday",
    "kickoff": "3p",
    "home": "Oregon State",
    "away": "Washington State",
    "homeDivision": "fbs",
    "awayDivision": "fbs",
    "homeLogo": null,
    "awayLogo": null,
    "venue": {
      "name": "Reser Stadium",
      "lat": 44.559,
      "lng": -123.2814
    },
    "missingVenue": false,
    "division": "fbs"
  },
  {
    "id": "2026-ncaa-401864520",
    "sourceId": 401864520,
    "sourceWeek": 7,
    "week": 8,
    "date": "2026-10-17",
    "day": "Saturday",
    "kickoff": "4p",
    "home": "North Dakota State",
    "away": "Nevada",
    "homeDivision": "fbs",
    "awayDivision": "fbs",
    "homeLogo": null,
    "awayLogo": "https://a.espncdn.com/i/teamlogos/ncaa/500/2440.png",
    "venue": {
      "name": "Fargodome",
      "lat": 46.9028,
      "lng": -96.8013
    },
    "missingVenue": false,
    "division": "fbs"
  },
  {
    "id": "2026-ncaa-401858262",
    "sourceId": 401858262,
    "sourceWeek": 7,
    "week": 8,
    "date": "2026-10-17",
    "day": "Saturday",
    "kickoff": "4:30p",
    "home": "Stanford",
    "away": "Elon",
    "homeDivision": "fbs",
    "awayDivision": "fcs",
    "homeLogo": "https://a.espncdn.com/i/teamlogos/ncaa/500/24.png",
    "awayLogo": null,
    "venue": {
      "name": "Stanford Stadium",
      "lat": 37.4344,
      "lng": -122.1614
    },
    "missingVenue": false,
    "division": "fbs"
  },
  {
    "id": "2026-ncaa-401860904",
    "sourceId": 401860904,
    "sourceWeek": 7,
    "week": 8,
    "date": "2026-10-18",
    "day": "Sunday",
    "kickoff": "7:30p",
    "home": "San Diego State",
    "away": "Fresno State",
    "homeDivision": "fbs",
    "awayDivision": "fbs",
    "homeLogo": "https://a.espncdn.com/i/teamlogos/ncaa/500/21.png",
    "awayLogo": "https://a.espncdn.com/i/teamlogos/ncaa/500/278.png",
    "venue": {
      "name": "Snapdragon Stadium",
      "lat": 32.7831,
      "lng": -117.1194
    },
    "missingVenue": false,
    "division": "fbs"
  }
]