[
  {
    "id": "2026-fbs-401858272",
    "week": 8,
    "date": "2026-10-23",
    "day": "Thursday",
    "kickoff": "9p",
    "home": "Stanford",
    "away": "NC State",
    "homeLogo": "https://a.espncdn.com/i/teamlogos/ncaa/500/24.png",
    "awayLogo": null,
    "venue": {
      "name": "Stanford Stadium",
      "lat": 37.4344,
      "lng": -122.1614
    },
    "division": "fbs"
  },
  {
    "id": "2026-fbs-401860905",
    "week": 8,
    "date": "2026-10-24",
    "day": "Friday",
    "kickoff": "9p",
    "home": "Colorado State",
    "away": "San Diego State",
    "homeLogo": "https://a.espncdn.com/i/teamlogos/ncaa/500/36.png",
    "awayLogo": "https://a.espncdn.com/i/teamlogos/ncaa/500/21.png",
    "venue": {
      "name": "Canvas Stadium",
      "lat": 40.5749,
      "lng": -105.0896
    },
    "division": "fbs"
  },
  {
    "id": "2026-fbs-401864528",
    "week": 8,
    "date": "2026-10-24",
    "day": "Friday",
    "kickoff": "9p",
    "home": "Nevada",
    "away": "San José State",
    "homeLogo": "https://a.espncdn.com/i/teamlogos/ncaa/500/2440.png",
    "awayLogo": "https://a.espncdn.com/i/teamlogos/ncaa/500/23.png",
    "venue": {
      "name": "Mackay Stadium",
      "lat": 39.5468,
      "lng": -119.8175
    },
    "division": "fbs"
  },
  {
    "id": "2026-fbs-401858274",
    "week": 8,
    "date": "2026-10-24",
    "day": "Friday",
    "kickoff": "9p",
    "home": "Miami",
    "away": "Pittsburgh",
    "homeLogo": null,
    "awayLogo": null,
    "venue": {
      "name": "Hard Rock Stadium",
      "lat": 25.958,
      "lng": -80.2389
    },
    "division": "fbs"
  },
  {
    "id": "2026-fbs-401856834",
    "week": 8,
    "date": "2026-10-24",
    "day": "Friday",
    "kickoff": "9p",
    "home": "Kansas",
    "away": "Baylor",
    "homeLogo": null,
    "awayLogo": null,
    "venue": {
      "name": "War Memorial Stadium",
      "lat": 41.307,
      "lng": -105.5677
    },
    "division": "fbs"
  },
  {
    "id": "2026-fbs-401856732",
    "week": 8,
    "date": "2026-10-24",
    "day": "Friday",
    "kickoff": "9p",
    "home": "Texas",
    "away": "Ole Miss",
    "homeLogo": "https://a.espncdn.com/i/teamlogos/ncaa/500/251.png",
    "awayLogo": null,
    "venue": {
      "name": "DKR-Texas Memorial Stadium",
      "lat": 30.2835,
      "lng": -97.7326
    },
    "division": "fbs"
  },
  {
    "id": "2026-fbs-401864525",
    "week": 8,
    "date": "2026-10-24",
    "day": "Friday",
    "kickoff": "9p",
    "home": "Wyoming",
    "away": "Air Force",
    "homeLogo": "https://a.espncdn.com/i/teamlogos/ncaa/500/2751.png",
    "awayLogo": "https://a.espncdn.com/i/teamlogos/ncaa/500/2005.png",
    "venue": {
      "name": "War Memorial Stadium",
      "lat": 41.307,
      "lng": -105.5677
    },
    "division": "fbs"
  }
]