[
  {
    "id": "nfl-401772946",
    "week": 12,
    "date": "2025-11-21",
    "day": "Friday",
    "kickoff": "1:15a",
    "home": "Houston Texans",
    "away": "Buffalo Bills",
    "homeLogo": "https://a.espncdn.com/i/teamlogos/nfl/500/scoreboard/hou.png",
    "awayLogo": "https://a.espncdn.com/i/teamlogos/nfl/500/scoreboard/buf.png",
    "venue": {
      "name": "NRG Stadium",
      "lat": 29.6847,
      "lng": -95.4107
    },
    "division": "nfl"
  },
  {
    "id": "nfl-401772780",
    "week": 12,
    "date": "2025-11-23",
    "day": "Sunday",
    "kickoff": "6p",
    "home": "Chicago Bears",
    "away": "Pittsburgh Steelers",
    "homeLogo": "https://a.espncdn.com/i/teamlogos/nfl/500/scoreboard/chi.png",
    "awayLogo": "https://a.espncdn.com/i/teamlogos/nfl/500/scoreboard/pit.png",
    "venue": {
      "name": "Soldier Field",
      "lat": 41.8623,
      "lng": -87.6167
    },
    "division": "nfl"
  },
  {
    "id": "nfl-401772781",
    "week": 12,
    "date": "2025-11-23",
    "day": "Sunday",
    "kickoff": "6p",
    "home": "Cincinnati Bengals",
    "away": "New England Patriots",
    "homeLogo": "https://a.espncdn.com/i/teamlogos/nfl/500/scoreboard/cin.png",
    "awayLogo": "https://a.espncdn.com/i/teamlogos/nfl/500/scoreboard/ne.png",
    "venue": {
      "name": "Paycor Stadium",
      "lat": 39.0954,
      "lng": -84.516
    },
    "division": "nfl"
  },
  {
    "id": "nfl-401772888",
    "week": 12,
    "date": "2025-11-23",
    "day": "Sunday",
    "kickoff": "6p",
    "home": "Detroit Lions",
    "away": "New York Giants",
    "homeLogo": "https://a.espncdn.com/i/teamlogos/nfl/500/scoreboard/det.png",
    "awayLogo": "https://a.espncdn.com/i/teamlogos/nfl/500/scoreboard/nyg.png",
    "venue": {
      "name": "Ford Field",
      "lat": 42.34,
      "lng": -83.0456
    },
    "division": "nfl"
  },
  {
    "id": "nfl-401772887",
    "week": 12,
    "date": "2025-11-23",
    "day": "Sunday",
    "kickoff": "6p",
    "home": "Green Bay Packers",
    "away": "Minnesota Vikings",
    "homeLogo": "https://a.espncdn.com/i/teamlogos/nfl/500/scoreboard/gb.png",
    "awayLogo": "https://a.espncdn.com/i/teamlogos/nfl/500/scoreboard/min.png",
    "venue": {
      "name": "Lambeau Field",
      "lat": 44.5013,
      "lng": -88.0622
    },
    "division": "nfl"
  },
  {
    "id": "nfl-401772886",
    "week": 12,
    "date": "2025-11-23",
    "day": "Sunday",
    "kickoff": "6p",
    "home": "Tennessee Titans",
    "away": "Seattle Seahawks",
    "homeLogo": "https://a.espncdn.com/i/teamlogos/nfl/500/scoreboard/ten.png",
    "awayLogo": "https://a.espncdn.com/i/teamlogos/nfl/500/scoreboard/sea.png",
    "venue": {
      "name": "Nissan Stadium",
      "lat": 36.1665,
      "lng": -86.7713
    },
    "division": "nfl"
  },
  {
    "id": "nfl-401772779",
    "week": 12,
    "date": "2025-11-23",
    "day": "Sunday",
    "kickoff": "6p",
    "home": "Kansas City Chiefs",
    "away": "Indianapolis Colts",
    "homeLogo": "https://a.espncdn.com/i/teamlogos/nfl/500/scoreboard/kc.png",
    "awayLogo": "https://a.espncdn.com/i/teamlogos/nfl/500/scoreboard/ind.png",
    "venue": {
      "name": "GEHA Field at Arrowhead Stadium",
      "lat": 39.0489,
      "lng": -94.4839
    },
    "division": "nfl"
  },
  {
    "id": "nfl-401772782",
    "week": 12,
    "date": "2025-11-23",
    "day": "Sunday",
    "kickoff": "6p",
    "home": "Baltimore Ravens",
    "away": "New York Jets",
    "homeLogo": "https://a.espncdn.com/i/teamlogos/nfl/500/scoreboard/bal.png",
    "awayLogo": "https://a.espncdn.com/i/teamlogos/nfl/500/scoreboard/nyj.png",
    "venue": {
      "name": "M&T Bank Stadium",
      "lat": 39.278,
      "lng": -76.6227
    },
    "division": "nfl"
  },
  {
    "id": "nfl-401772784",
    "week": 12,
    "date": "2025-11-23",
    "day": "Sunday",
    "kickoff": "9:05p",
    "home": "Las Vegas Raiders",
    "away": "Cleveland Browns",
    "homeLogo": "https://a.espncdn.com/i/teamlogos/nfl/500/scoreboard/lv.png",
    "awayLogo": "https://a.espncdn.com/i/teamlogos/nfl/500/scoreboard/cle.png",
    "venue": {
      "name": "Allegiant Stadium",
      "lat": 36.0909,
      "lng": -115.1833
    },
    "division": "nfl"
  },
  {
    "id": "nfl-401772783",
    "week": 12,
    "date": "2025-11-23",
    "day": "Sunday",
    "kickoff": "9:05p",
    "home": "Arizona Cardinals",
    "away": "Jacksonville Jaguars",
    "homeLogo": "https://a.espncdn.com/i/teamlogos/nfl/500/scoreboard/ari.png",
    "awayLogo": "https://a.espncdn.com/i/teamlogos/nfl/500/scoreboard/jax.png",
    "venue": {
      "name": "State Farm Stadium",
      "lat": 33.5276,
      "lng": -112.2626
    },
    "division": "nfl"
  },
  {
    "id": "nfl-401772890",
    "week": 12,
    "date": "2025-11-23",
    "day": "Sunday",
    "kickoff": "9:25p",
    "home": "Dallas Cowboys",
    "away": "Philadelphia Eagles",
    "homeLogo": "https://a.espncdn.com/i/teamlogos/nfl/500/scoreboard/dal.png",
    "awayLogo": "https://a.espncdn.com/i/teamlogos/nfl/500/scoreboard/phi.png",
    "venue": {
      "name": "AT&T Stadium",
      "lat": 32.7473,
      "lng": -97.0945
    },
    "division": "nfl"
  },
  {
    "id": "nfl-401772889",
    "week": 12,
    "date": "2025-11-23",
    "day": "Sunday",
    "kickoff": "9:25p",
    "home": "New Orleans Saints",
    "away": "Atlanta Falcons",
    "homeLogo": "https://a.espncdn.com/i/teamlogos/nfl/500/scoreboard/no.png",
    "awayLogo": "https://a.espncdn.com/i/teamlogos/nfl/500/scoreboard/atl.png",
    "venue": {
      "name": "Caesars Superdome",
      "lat": 29.9511,
      "lng": -90.0812
    },
    "division": "nfl"
  },
  {
    "id": "nfl-401772929",
    "week": 12,
    "date": "2025-11-24",
    "day": "Monday",
    "kickoff": "1:20a",
    "home": "Los Angeles Rams",
    "away": "Tampa Bay Buccaneers",
    "homeLogo": "https://a.espncdn.com/i/teamlogos/nfl/500/scoreboard/lar.png",
    "awayLogo": "https://a.espncdn.com/i/teamlogos/nfl/500/scoreboard/tb.png",
    "venue": {
      "name": "SoFi Stadium",
      "lat": 33.9535,
      "lng": -118.3392
    },
    "division": "nfl"
  },
  {
    "id": "nfl-401772820",
    "week": 12,
    "date": "2025-11-25",
    "day": "Tuesday",
    "kickoff": "1:15a",
    "home": "San Francisco 49ers",
    "away": "Carolina Panthers",
    "homeLogo": "https://a.espncdn.com/i/teamlogos/nfl/500/scoreboard/sf.png",
    "awayLogo": "https://a.espncdn.com/i/teamlogos/nfl/500/scoreboard/car.png",
    "venue": {
      "name": "Levi's Stadium",
      "lat": 37.403,
      "lng": -121.9697
    },
    "division": "nfl"
  }
]