[
  {
    "id": "nfl-401772945",
    "week": 11,
    "date": "2025-11-14",
    "day": "Friday",
    "kickoff": "5:15p",
    "home": "New England Patriots",
    "away": "New York Jets",
    "homeLogo": "https://a.espncdn.com/i/teamlogos/nfl/500/scoreboard/ne.png",
    "awayLogo": "https://a.espncdn.com/i/teamlogos/nfl/500/scoreboard/nyj.png",
    "venue": {
      "name": "Gillette Stadium",
      "lat": 42.0909,
      "lng": -71.2643
    },
    "missingVenue": false,
    "division": "nfl"
  },
  {
    "id": "nfl-401772631",
    "week": 11,
    "date": "2025-11-16",
    "day": "Sunday",
    "kickoff": "6:30a",
    "home": "Miami Dolphins",
    "away": "Washington Commanders",
    "homeLogo": "https://a.espncdn.com/i/teamlogos/nfl/500/scoreboard/mia.png",
    "awayLogo": "https://a.espncdn.com/i/teamlogos/nfl/500/scoreboard/wsh.png",
    "venue": {
      "name": "Santiago Bernabéu",
      "lat": 40.453,
      "lng": -3.6884
    },
    "missingVenue": false,
    "division": "nfl"
  },
  {
    "id": "nfl-401772882",
    "week": 11,
    "date": "2025-11-16",
    "day": "Sunday",
    "kickoff": "10a",
    "home": "Atlanta Falcons",
    "away": "Carolina Panthers",
    "homeLogo": "https://a.espncdn.com/i/teamlogos/nfl/500/scoreboard/atl.png",
    "awayLogo": "https://a.espncdn.com/i/teamlogos/nfl/500/scoreboard/car.png",
    "venue": {
      "name": "Mercedes-Benz Stadium",
      "lat": 33.7553,
      "lng": -84.4006
    },
    "missingVenue": false,
    "division": "nfl"
  },
  {
    "id": "nfl-401772776",
    "week": 11,
    "date": "2025-11-16",
    "day": "Sunday",
    "kickoff": "10a",
    "home": "Buffalo Bills",
    "away": "Tampa Bay Buccaneers",
    "homeLogo": "https://a.espncdn.com/i/teamlogos/nfl/500/scoreboard/buf.png",
    "awayLogo": "https://a.espncdn.com/i/teamlogos/nfl/500/scoreboard/tb.png",
    "venue": {
      "name": "Highmark Stadium (Old)",
      "lat": 42.7738,
      "lng": -78.787
    },
    "missingVenue": false,
    "division": "nfl"
  },
  {
    "id": "nfl-401772881",
    "week": 11,
    "date": "2025-11-16",
    "day": "Sunday",
    "kickoff": "10a",
    "home": "Tennessee Titans",
    "away": "Houston Texans",
    "homeLogo": "https://a.espncdn.com/i/teamlogos/nfl/500/scoreboard/ten.png",
    "awayLogo": "https://a.espncdn.com/i/teamlogos/nfl/500/scoreboard/hou.png",
    "venue": {
      "name": "Nissan Stadium",
      "lat": 36.1665,
      "lng": -86.7713
    },
    "missingVenue": false,
    "division": "nfl"
  },
  {
    "id": "nfl-401772880",
    "week": 11,
    "date": "2025-11-16",
    "day": "Sunday",
    "kickoff": "10a",
    "home": "Minnesota Vikings",
    "away": "Chicago Bears",
    "homeLogo": "https://a.espncdn.com/i/teamlogos/nfl/500/scoreboard/min.png",
    "awayLogo": "https://a.espncdn.com/i/teamlogos/nfl/500/scoreboard/chi.png",
    "venue": {
      "name": "U.S. Bank Stadium",
      "lat": 44.9738,
      "lng": -93.2578
    },
    "missingVenue": false,
    "division": "nfl"
  },
  {
    "id": "nfl-401772883",
    "week": 11,
    "date": "2025-11-16",
    "day": "Sunday",
    "kickoff": "10a",
    "home": "New York Giants",
    "away": "Green Bay Packers",
    "homeLogo": "https://a.espncdn.com/i/teamlogos/nfl/500/scoreboard/nyg.png",
    "awayLogo": "https://a.espncdn.com/i/teamlogos/nfl/500/scoreboard/gb.png",
    "venue": {
      "name": "MetLife Stadium",
      "lat": 40.8128,
      "lng": -74.0742
    },
    "missingVenue": false,
    "division": "nfl"
  },
  {
    "id": "nfl-401772774",
    "week": 11,
    "date": "2025-11-16",
    "day": "Sunday",
    "kickoff": "10a",
    "home": "Pittsburgh Steelers",
    "away": "Cincinnati Bengals",
    "homeLogo": "https://a.espncdn.com/i/teamlogos/nfl/500/scoreboard/pit.png",
    "awayLogo": "https://a.espncdn.com/i/teamlogos/nfl/500/scoreboard/cin.png",
    "venue": {
      "name": "Acrisure Stadium",
      "lat": 40.4468,
      "lng": -80.0158
    },
    "missingVenue": false,
    "division": "nfl"
  },
  {
    "id": "nfl-401772775",
    "week": 11,
    "date": "2025-11-16",
    "day": "Sunday",
    "kickoff": "10a",
    "home": "Jacksonville Jaguars",
    "away": "Los Angeles Chargers",
    "homeLogo": "https://a.espncdn.com/i/teamlogos/nfl/500/scoreboard/jax.png",
    "awayLogo": "https://a.espncdn.com/i/teamlogos/nfl/500/scoreboard/lac.png",
    "venue": {
      "name": "EverBank Stadium",
      "lat": 30.3239,
      "lng": -81.6373
    },
    "missingVenue": false,
    "division": "nfl"
  },
  {
    "id": "nfl-401772884",
    "week": 11,
    "date": "2025-11-16",
    "day": "Sunday",
    "kickoff": "1:05p",
    "home": "Los Angeles Rams",
    "away": "Seattle Seahawks",
    "homeLogo": "https://a.espncdn.com/i/teamlogos/nfl/500/scoreboard/lar.png",
    "awayLogo": "https://a.espncdn.com/i/teamlogos/nfl/500/scoreboard/sea.png",
    "venue": {
      "name": "SoFi Stadium",
      "lat": 33.9535,
      "lng": -118.3392
    },
    "missingVenue": false,
    "division": "nfl"
  },
  {
    "id": "nfl-401772885",
    "week": 11,
    "date": "2025-11-16",
    "day": "Sunday",
    "kickoff": "1:05p",
    "home": "Arizona Cardinals",
    "away": "San Francisco 49ers",
    "homeLogo": "https://a.espncdn.com/i/teamlogos/nfl/500/scoreboard/ari.png",
    "awayLogo": "https://a.espncdn.com/i/teamlogos/nfl/500/scoreboard/sf.png",
    "venue": {
      "name": "State Farm Stadium",
      "lat": 33.5276,
      "lng": -112.2626
    },
    "missingVenue": false,
    "division": "nfl"
  },
  {
    "id": "nfl-401772777",
    "week": 11,
    "date": "2025-11-16",
    "day": "Sunday",
    "kickoff": "1:25p",
    "home": "Cleveland Browns",
    "away": "Baltimore Ravens",
    "homeLogo": "https://a.espncdn.com/i/teamlogos/nfl/500/scoreboard/cle.png",
    "awayLogo": "https://a.espncdn.com/i/teamlogos/nfl/500/scoreboard/bal.png",
    "venue": {
      "name": "Huntington Bank Field",
      "lat": 41.5061,
      "lng": -81.6995
    },
    "missingVenue": false,
    "division": "nfl"
  },
  {
    "id": "nfl-401772778",
    "week": 11,
    "date": "2025-11-16",
    "day": "Sunday",
    "kickoff": "1:25p",
    "home": "Denver Broncos",
    "away": "Kansas City Chiefs",
    "homeLogo": "https://a.espncdn.com/i/teamlogos/nfl/500/scoreboard/den.png",
    "awayLogo": "https://a.espncdn.com/i/teamlogos/nfl/500/scoreboard/kc.png",
    "venue": {
      "name": "Empower Field at Mile High",
      "lat": 39.7439,
      "lng": -105.0201
    },
    "missingVenue": false,
    "division": "nfl"
  },
  {
    "id": "nfl-401772928",
    "week": 11,
    "date": "2025-11-17",
    "day": "Monday",
    "kickoff": "5:20p",
    "home": "Philadelphia Eagles",
    "away": "Detroit Lions",
    "homeLogo": "https://a.espncdn.com/i/teamlogos/nfl/500/scoreboard/phi.png",
    "awayLogo": "https://a.espncdn.com/i/teamlogos/nfl/500/scoreboard/det.png",
    "venue": {
      "name": "Lincoln Financial Field",
      "lat": 39.9008,
      "lng": -75.1675
    },
    "missingVenue": false,
    "division": "nfl"
  },
  {
    "id": "nfl-401772819",
    "week": 11,
    "date": "2025-11-18",
    "day": "Tuesday",
    "kickoff": "5:15p",
    "home": "Las Vegas Raiders",
    "away": "Dallas Cowboys",
    "homeLogo": "https://a.espncdn.com/i/teamlogos/nfl/500/scoreboard/lv.png",
    "awayLogo": "https://a.espncdn.com/i/teamlogos/nfl/500/scoreboard/dal.png",
    "venue": {
      "name": "Allegiant Stadium",
      "lat": 36.0909,
      "lng": -115.1833
    },
    "missingVenue": false,
    "division": "nfl"
  }
]