[
  {
    "id": "2025-fbs-401762856",
    "week": 12,
    "date": "2025-11-12",
    "day": "Wednesday",
    "kickoff": "12:30a",
    "home": "Akron",
    "away": "Kent State",
    "homeLogo": "https://a.espncdn.com/i/teamlogos/ncaa/500/2006.png",
    "awayLogo": null,
    "venue": {
      "name": "InfoCision Stadium",
      "lat": 41.0726,
      "lng": -81.5084
    },
    "division": "fbs"
  },
  {
    "id": "2025-fbs-401752904",
    "week": 12,
    "date": "2025-11-15",
    "day": "Saturday",
    "kickoff": "2a",
    "home": "Oregon",
    "away": "Minnesota",
    "homeLogo": null,
    "awayLogo": null,
    "venue": {
      "name": "Autzen Stadium",
      "lat": 44.0584,
      "lng": -123.0681
    },
    "division": "fbs"
  },
  {
    "id": "2025-fbs-401754597",
    "week": 12,
    "date": "2025-11-15",
    "day": "Saturday",
    "kickoff": "5p",
    "home": "Pittsburgh",
    "away": "Notre Dame",
    "homeLogo": null,
    "awayLogo": null,
    "venue": {
      "name": "Acrisure Stadium",
      "lat": 40.4468,
      "lng": -80.0158
    },
    "division": "fbs"
  },
  {
    "id": "2025-fbs-401752901",
    "week": 12,
    "date": "2025-11-15",
    "day": "Saturday",
    "kickoff": "5p",
    "home": "Indiana",
    "away": "Wisconsin",
    "homeLogo": null,
    "awayLogo": null,
    "venue": {
      "name": "Memorial Stadium (Bloomington, IN)",
      "lat": 39.1793,
      "lng": -86.5232
    },
    "division": "fbs"
  },
  {
    "id": "2025-fbs-401752772",
    "week": 12,
    "date": "2025-11-15",
    "day": "Saturday",
    "kickoff": "5p",
    "home": "Texas A&M",
    "away": "South Carolina",
    "homeLogo": null,
    "awayLogo": null,
    "venue": {
      "name": "Kyle Field",
      "lat": 30.61,
      "lng": -96.34
    },
    "division": "fbs"
  },
  {
    "id": "2025-fbs-401756952",
    "week": 12,
    "date": "2025-11-15",
    "day": "Saturday",
    "kickoff": "5p",
    "home": "Oklahoma State",
    "away": "Kansas State",
    "homeLogo": null,
    "awayLogo": null,
    "venue": {
      "name": "Boone Pickens Stadium",
      "lat": 36.1286,
      "lng": -97.0651
    },
    "division": "fbs"
  },
  {
    "id": "2025-fbs-401752768",
    "week": 12,
    "date": "2025-11-15",
    "day": "Saturday",
    "kickoff": "5:45p",
    "home": "LSU",
    "away": "Arkansas",
    "homeLogo": null,
    "awayLogo": null,
    "venue": {
      "name": "Tiger Stadium (LA)",
      "lat": 30.4122,
      "lng": -91.1839
    },
    "division": "fbs"
  },
  {
    "id": "2025-fbs-401752767",
    "week": 12,
    "date": "2025-11-15",
    "day": "Saturday",
    "kickoff": "6:30p",
    "home": "Kentucky",
    "away": "Tennessee Tech",
    "homeLogo": null,
    "awayLogo": null,
    "venue": {
      "name": "Kroger Field",
      "lat": 38.022,
      "lng": -84.5037
    },
    "division": "fbs"
  },
  {
    "id": "2025-fbs-401752903",
    "week": 12,
    "date": "2025-11-15",
    "day": "Saturday",
    "kickoff": "8:30p",
    "home": "Michigan State",
    "away": "Penn State",
    "homeLogo": null,
    "awayLogo": null,
    "venue": {
      "name": "Spartan Stadium",
      "lat": 37.3975,
      "lng": -121.8635
    },
    "division": "fbs"
  },
  {
    "id": "2025-fbs-401756953",
    "week": 12,
    "date": "2025-11-15",
    "day": "Saturday",
    "kickoff": "8:30p",
    "home": "Texas Tech",
    "away": "UCF",
    "homeLogo": null,
    "awayLogo": null,
    "venue": {
      "name": "AT&T Stadium",
      "lat": 32.7473,
      "lng": -97.0945
    },
    "division": "fbs"
  },
  {
    "id": "2025-fbs-401752906",
    "week": 12,
    "date": "2025-11-15",
    "day": "Saturday",
    "kickoff": "8:30p",
    "home": "Illinois",
    "away": "Maryland",
    "homeLogo": null,
    "awayLogo": null,
    "venue": {
      "name": "Memorial Stadium (Champaign, IL)",
      "lat": 40.0993,
      "lng": -88.2358
    },
    "division": "fbs"
  },
  {
    "id": "2025-fbs-401760413",
    "week": 12,
    "date": "2025-11-15",
    "day": "Saturday",
    "kickoff": "8:30p",
    "home": "Nevada",
    "away": "San José State",
    "homeLogo": "https://a.espncdn.com/i/teamlogos/ncaa/500/2440.png",
    "awayLogo": "https://a.espncdn.com/i/teamlogos/ncaa/500/23.png",
    "venue": {
      "name": "Mackay Stadium",
      "lat": 39.5468,
      "lng": -119.8175
    },
    "division": "fbs"
  },
  {
    "id": "2025-fbs-401752765",
    "week": 12,
    "date": "2025-11-15",
    "day": "Saturday",
    "kickoff": "8:30p",
    "home": "Alabama",
    "away": "Oklahoma",
    "homeLogo": null,
    "awayLogo": null,
    "venue": {
      "name": "Bryant-Denny Stadium",
      "lat": 33.208,
      "lng": -87.5502
    },
    "division": "fbs"
  },
  {
    "id": "2025-fbs-401754595",
    "week": 12,
    "date": "2025-11-15",
    "day": "Saturday",
    "kickoff": "8:30p",
    "home": "Miami",
    "away": "NC State",
    "homeLogo": null,
    "awayLogo": null,
    "venue": {
      "name": "Hard Rock Stadium",
      "lat": 25.958,
      "lng": -80.2389
    },
    "division": "fbs"
  },
  {
    "id": "2025-fbs-401752907",
    "week": 12,
    "date": "2025-11-15",
    "day": "Saturday",
    "kickoff": "8:30p",
    "home": "USC",
    "away": "Iowa",
    "homeLogo": null,
    "awayLogo": null,
    "venue": {
      "name": "Los Angeles Memorial Coliseum",
      "lat": 34.0141,
      "lng": -118.2879
    },
    "division": "fbs"
  },
  {
    "id": "2025-fbs-401752771",
    "week": 12,
    "date": "2025-11-15",
    "day": "Saturday",
    "kickoff": "9:15p",
    "home": "Tennessee",
    "away": "New Mexico State",
    "homeLogo": null,
    "awayLogo": null,
    "venue": {
      "name": "Neyland Stadium",
      "lat": 35.9551,
      "lng": -83.9252
    },
    "division": "fbs"
  },
  {
    "id": "2025-fbs-401760414",
    "week": 12,
    "date": "2025-11-16",
    "day": "Sunday",
    "kickoff": "12a",
    "home": "UNLV",
    "away": "Utah State",
    "homeLogo": "https://a.espncdn.com/i/teamlogos/ncaa/500/2439.png",
    "awayLogo": "https://a.espncdn.com/i/teamlogos/ncaa/500/328.png",
    "venue": {
      "name": "Allegiant Stadium",
      "lat": 36.0909,
      "lng": -115.1833
    },
    "division": "fbs"
  },
  {
    "id": "2025-fbs-401752902",
    "week": 12,
    "date": "2025-11-16",
    "day": "Sunday",
    "kickoff": "12a",
    "home": "Washington",
    "away": "Purdue",
    "homeLogo": null,
    "awayLogo": null,
    "venue": {
      "name": "Husky Stadium",
      "lat": 47.6504,
      "lng": -122.3016
    },
    "division": "fbs"
  },
  {
    "id": "2025-fbs-401756949",
    "week": 12,
    "date": "2025-11-16",
    "day": "Sunday",
    "kickoff": "12a",
    "home": "Baylor",
    "away": "Utah",
    "homeLogo": null,
    "awayLogo": "https://a.espncdn.com/i/teamlogos/ncaa/500/254.png",
    "venue": {
      "name": "Lane Stadium",
      "lat": 37.2206,
      "lng": -80.4183
    },
    "division": "fbs"
  },
  {
    "id": "2025-fbs-401752900",
    "week": 12,
    "date": "2025-11-16",
    "day": "Sunday",
    "kickoff": "12:30a",
    "home": "Ohio State",
    "away": "UCLA",
    "homeLogo": null,
    "awayLogo": null,
    "venue": {
      "name": "Ohio Stadium",
      "lat": 40.0018,
      "lng": -83.0197
    },
    "division": "fbs"
  },
  {
    "id": "2025-fbs-401752766",
    "week": 12,
    "date": "2025-11-16",
    "day": "Sunday",
    "kickoff": "12:30a",
    "home": "Georgia",
    "away": "Texas",
    "homeLogo": null,
    "awayLogo": "https://a.espncdn.com/i/teamlogos/ncaa/500/251.png",
    "venue": {
      "name": "Sanford Stadium",
      "lat": 33.9498,
      "lng": -83.3732
    },
    "division": "fbs"
  },
  {
    "id": "2025-fbs-401754594",
    "week": 12,
    "date": "2025-11-16",
    "day": "Sunday",
    "kickoff": "12:30a",
    "home": "Florida State",
    "away": "Virginia Tech",
    "homeLogo": null,
    "awayLogo": null,
    "venue": {
      "name": "Doak Campbell Stadium",
      "lat": 30.4384,
      "lng": -84.3045
    },
    "division": "fbs"
  },
  {
    "id": "2025-fbs-401752770",
    "week": 12,
    "date": "2025-11-16",
    "day": "Sunday",
    "kickoff": "12:45a",
    "home": "Missouri",
    "away": "Mississippi State",
    "homeLogo": null,
    "awayLogo": null,
    "venue": {
      "name": "War Memorial Stadium",
      "lat": 41.307,
      "lng": -105.5677
    },
    "division": "fbs"
  },
  {
    "id": "2025-fbs-401756950",
    "week": 12,
    "date": "2025-11-16",
    "day": "Sunday",
    "kickoff": "3:15a",
    "home": "BYU",
    "away": "TCU",
    "homeLogo": null,
    "awayLogo": null,
    "venue": {
      "name": "LaVell Edwards Stadium",
      "lat": 40.2578,
      "lng": -111.6563
    },
    "division": "fbs"
  },
  {
    "id": "2025-fbs-401760412",
    "week": 12,
    "date": "2025-11-16",
    "day": "Sunday",
    "kickoff": "3:30a",
    "home": "Fresno State",
    "away": "Wyoming",
    "homeLogo": "https://a.espncdn.com/i/teamlogos/ncaa/500/278.png",
    "awayLogo": "https://a.espncdn.com/i/teamlogos/ncaa/500/2751.png",
    "venue": {
      "name": "Valley Children's Stadium",
      "lat": 36.8144,
      "lng": -119.758
    },
    "division": "fbs"
  },
  {
    "id": "2025-fbs-401760410",
    "week": 12,
    "date": "2025-11-16",
    "day": "Sunday",
    "kickoff": "3:30a",
    "home": "San Diego State",
    "away": "Boise State",
    "homeLogo": "https://a.espncdn.com/i/teamlogos/ncaa/500/21.png",
    "awayLogo": null,
    "venue": {
      "name": "Snapdragon Stadium",
      "lat": 32.7831,
      "lng": -117.1194
    },
    "division": "fbs"
  }
]