[
  {
    "id": "2025-fbs-401762856",
    "week": 12,
    "date": "2025-11-12",
    "day": "Wednesday",
    "kickoff": "12:30a",
    "home": "Akron",
    "away": "Kent State",
    "homeLogo": "https://a.espncdn.com/i/teamlogos/ncaa/500/2006.png",
    "awayLogo": null,
    "venue": {
      "name": "InfoCision Stadium",
      "lat": 41.0726,
      "lng": -81.5084
    },
    "division": "fbs"
  },
  {
    "id": "2025-fbs-401752904",
    "week": 12,
    "date": "2025-11-15",
    "day": "Saturday",
    "kickoff": "2a",
    "home": "Oregon",
    "away": "Minnesota",
    "homeLogo": null,
    "awayLogo": null,
    "venue": {
      "name": "Autzen Stadium",
      "lat": 44.0584,
      "lng": -123.0681
    },
    "division": "fbs"
  },
  {
    "id": "2025-fbs-401754597",
    "week": 12,
    "date": "2025-11-15",
    "day": "Saturday",
    "kickoff": "5p",
    "home": "Pittsburgh",
    "away": "Notre Dame",
    "homeLogo": null,
    "awayLogo": null,
    "venue": {
      "name": "Acrisure Stadium",
      "lat": 40.4468,
      "lng": -80.0158
    },
    "division": "fbs"
  },
  {
    "id": "2025-fbs-401760413",
    "week": 12,
    "date": "2025-11-15",
    "day": "Saturday",
    "kickoff": "8:30p",
    "home": "Nevada",
    "away": "San José State",
    "homeLogo": "https://a.espncdn.com/i/teamlogos/ncaa/500/2440.png",
    "awayLogo": "https://a.espncdn.com/i/teamlogos/ncaa/500/23.png",
    "venue": {
      "name": "Mackay Stadium",
      "lat": 39.5468,
      "lng": -119.8175
    },
    "division": "fbs"
  },
  {
    "id": "2025-fbs-401752903",
    "week": 12,
    "date": "2025-11-15",
    "day": "Saturday",
    "kickoff": "8:30p",
    "home": "Michigan State",
    "away": "Penn State",
    "homeLogo": null,
    "awayLogo": null,
    "venue": {
      "name": "Spartan Stadium",
      "lat": 37.3975,
      "lng": -121.8635
    },
    "division": "fbs"
  },
  {
    "id": "2025-fbs-401754595",
    "week": 12,
    "date": "2025-11-15",
    "day": "Saturday",
    "kickoff": "8:30p",
    "home": "Miami",
    "away": "NC State",
    "homeLogo": null,
    "awayLogo": null,
    "venue": {
      "name": "Hard Rock Stadium",
      "lat": 25.958,
      "lng": -80.2389
    },
    "division": "fbs"
  },
  {
    "id": "2025-fbs-401756953",
    "week": 12,
    "date": "2025-11-15",
    "day": "Saturday",
    "kickoff": "8:30p",
    "home": "Texas Tech",
    "away": "UCF",
    "homeLogo": null,
    "awayLogo": null,
    "venue": {
      "name": "AT&T Stadium",
      "lat": 32.7473,
      "lng": -97.0945
    },
    "division": "fbs"
  },
  {
    "id": "2025-fbs-401760414",
    "week": 12,
    "date": "2025-11-16",
    "day": "Sunday",
    "kickoff": "12a",
    "home": "UNLV",
    "away": "Utah State",
    "homeLogo": "https://a.espncdn.com/i/teamlogos/ncaa/500/2439.png",
    "awayLogo": "https://a.espncdn.com/i/teamlogos/ncaa/500/328.png",
    "venue": {
      "name": "Allegiant Stadium",
      "lat": 36.0909,
      "lng": -115.1833
    },
    "division": "fbs"
  },
  {
    "id": "2025-fbs-401752770",
    "week": 12,
    "date": "2025-11-16",
    "day": "Sunday",
    "kickoff": "12:45a",
    "home": "Missouri",
    "away": "Mississippi State",
    "homeLogo": null,
    "awayLogo": null,
    "venue": {
      "name": "War Memorial Stadium",
      "lat": 41.307,
      "lng": -105.5677
    },
    "division": "fbs"
  },
  {
    "id": "2025-fbs-401760410",
    "week": 12,
    "date": "2025-11-16",
    "day": "Sunday",
    "kickoff": "3:30a",
    "home": "San Diego State",
    "away": "Boise State",
    "homeLogo": "https://a.espncdn.com/i/teamlogos/ncaa/500/21.png",
    "awayLogo": null,
    "venue": {
      "name": "Snapdragon Stadium",
      "lat": 32.7831,
      "lng": -117.1194
    },
    "division": "fbs"
  },
  {
    "id": "2025-fbs-401760412",
    "week": 12,
    "date": "2025-11-16",
    "day": "Sunday",
    "kickoff": "3:30a",
    "home": "Fresno State",
    "away": "Wyoming",
    "homeLogo": "https://a.espncdn.com/i/teamlogos/ncaa/500/278.png",
    "awayLogo": "https://a.espncdn.com/i/teamlogos/ncaa/500/2751.png",
    "venue": {
      "name": "Valley Children's Stadium",
      "lat": 36.8144,
      "lng": -119.758
    },
    "division": "fbs"
  }
]