[
  {
    "id": "2025-fbs-401752817",
    "week": 2,
    "date": "2025-09-05",
    "day": "Friday",
    "kickoff": "11:30p",
    "home": "Northwestern",
    "away": "Western Illinois",
    "homeLogo": null,
    "awayLogo": null,
    "venue": {
      "name": "Lanny and Sharon Martin Stadium",
      "lat": 34.361,
      "lng": -103.2067
    },
    "division": "fbs"
  },
  {
    "id": "2025-fbs-401752826",
    "week": 2,
    "date": "2025-09-05",
    "day": "Friday",
    "kickoff": "11:30p",
    "home": "Maryland",
    "away": "Northern Illinois",
    "homeLogo": null,
    "awayLogo": null,
    "venue": {
      "name": "SECU Stadium",
      "lat": 38.9941,
      "lng": -76.948
    },
    "division": "fbs"
  },
  {
    "id": "2025-fbs-401752693",
    "week": 2,
    "date": "2025-09-06",
    "day": "Saturday",
    "kickoff": "4p",
    "home": "Texas",
    "away": "San José State",
    "homeLogo": "https://a.espncdn.com/i/teamlogos/ncaa/500/251.png",
    "awayLogo": "https://a.espncdn.com/i/teamlogos/ncaa/500/23.png",
    "venue": {
      "name": "DKR-Texas Memorial Stadium",
      "lat": 30.2839,
      "lng": -97.7325
    },
    "division": "fbs"
  },
  {
    "id": "2025-fbs-401752812",
    "week": 2,
    "date": "2025-09-06",
    "day": "Saturday",
    "kickoff": "4p",
    "home": "Indiana",
    "away": "Kennesaw State",
    "homeLogo": null,
    "awayLogo": null,
    "venue": {
      "name": "Memorial Stadium (Bloomington, IN)",
      "lat": 39.1793,
      "lng": -86.5232
    },
    "division": "fbs"
  },
  {
    "id": "2025-fbs-401754621",
    "week": 2,
    "date": "2025-09-06",
    "day": "Saturday",
    "kickoff": "4p",
    "home": "Florida State",
    "away": "East Texas A&M",
    "homeLogo": null,
    "awayLogo": null,
    "venue": {
      "name": "Doak Campbell Stadium",
      "lat": 30.4384,
      "lng": -84.3045
    },
    "division": "fbs"
  },
  {
    "id": "2025-fbs-401752811",
    "week": 2,
    "date": "2025-09-06",
    "day": "Saturday",
    "kickoff": "4p",
    "home": "Penn State",
    "away": "Florida International",
    "homeLogo": null,
    "awayLogo": null,
    "venue": {
      "name": "Beaver Stadium",
      "lat": 40.8122,
      "lng": -77.8561
    },
    "division": "fbs"
  },
  {
    "id": "2025-fbs-401756885",
    "week": 2,
    "date": "2025-09-06",
    "day": "Saturday",
    "kickoff": "4p",
    "home": "Texas Tech",
    "away": "Kent State",
    "homeLogo": null,
    "awayLogo": null,
    "venue": {
      "name": "AT&T Stadium",
      "lat": 32.7473,
      "lng": -97.0945
    },
    "division": "fbs"
  },
  {
    "id": "2025-fbs-401754618",
    "week": 2,
    "date": "2025-09-06",
    "day": "Saturday",
    "kickoff": "4p",
    "home": "Syracuse",
    "away": "UConn",
    "homeLogo": null,
    "awayLogo": null,
    "venue": {
      "name": "JMA Wireless Dome",
      "lat": 43.0361,
      "lng": -76.1364
    },
    "division": "fbs"
  },
  {
    "id": "2025-fbs-401752822",
    "week": 2,
    "date": "2025-09-06",
    "day": "Saturday",
    "kickoff": "4p",
    "home": "Iowa State",
    "away": "Iowa",
    "homeLogo": null,
    "awayLogo": null,
    "venue": {
      "name": "Jack Trice Stadium",
      "lat": 42.014,
      "lng": -93.6356
    },
    "division": "fbs"
  },
  {
    "id": "2025-fbs-401754529",
    "week": 2,
    "date": "2025-09-06",
    "day": "Saturday",
    "kickoff": "4p",
    "home": "Pittsburgh",
    "away": "Central Michigan",
    "homeLogo": null,
    "awayLogo": "https://a.espncdn.com/i/teamlogos/ncaa/500/2117.png",
    "venue": {
      "name": "Acrisure Stadium",
      "lat": 40.4468,
      "lng": -80.0158
    },
    "division": "fbs"
  },
  {
    "id": "2025-fbs-401752694",
    "week": 2,
    "date": "2025-09-06",
    "day": "Saturday",
    "kickoff": "4:45p",
    "home": "Texas A&M",
    "away": "Utah State",
    "homeLogo": null,
    "awayLogo": "https://a.espncdn.com/i/teamlogos/ncaa/500/328.png",
    "venue": {
      "name": "Kyle Field",
      "lat": 30.61,
      "lng": -96.34
    },
    "division": "fbs"
  },
  {
    "id": "2025-fbs-401762462",
    "week": 2,
    "date": "2025-09-06",
    "day": "Saturday",
    "kickoff": "6p",
    "home": "Temple",
    "away": "Howard",
    "homeLogo": null,
    "awayLogo": null,
    "venue": {
      "name": "Lincoln Financial Field",
      "lat": 39.9008,
      "lng": -75.1675
    },
    "division": "fbs"
  },
  {
    "id": "2025-fbs-401752818",
    "week": 2,
    "date": "2025-09-06",
    "day": "Saturday",
    "kickoff": "7:30p",
    "home": "Rutgers",
    "away": "Miami (OH)",
    "homeLogo": null,
    "awayLogo": null,
    "venue": {
      "name": "SHI Stadium",
      "lat": 40.5139,
      "lng": -74.4647
    },
    "division": "fbs"
  },
  {
    "id": "2025-fbs-401752689",
    "week": 2,
    "date": "2025-09-06",
    "day": "Saturday",
    "kickoff": "7:30p",
    "home": "Missouri",
    "away": "Kansas",
    "homeLogo": null,
    "awayLogo": null,
    "venue": {
      "name": "War Memorial Stadium",
      "lat": 41.307,
      "lng": -105.5677
    },
    "division": "fbs"
  },
  {
    "id": "2025-fbs-401761603",
    "week": 2,
    "date": "2025-09-06",
    "day": "Saturday",
    "kickoff": "7:30p",
    "home": "UTSA",
    "away": "Texas State",
    "homeLogo": null,
    "awayLogo": null,
    "venue": {
      "name": "Alamodome",
      "lat": 29.4191,
      "lng": -98.4737
    },
    "division": "fbs"
  },
  {
    "id": "2025-fbs-401756881",
    "week": 2,
    "date": "2025-09-06",
    "day": "Saturday",
    "kickoff": "7:30p",
    "home": "Colorado",
    "away": "Delaware",
    "homeLogo": "https://a.espncdn.com/i/teamlogos/ncaa/500/38.png",
    "awayLogo": null,
    "venue": {
      "name": "Folsom Field",
      "lat": 40.0096,
      "lng": -105.2644
    },
    "division": "fbs"
  },
  {
    "id": "2025-fbs-401752692",
    "week": 2,
    "date": "2025-09-06",
    "day": "Saturday",
    "kickoff": "7:30p",
    "home": "Tennessee",
    "away": "East Tennessee State",
    "homeLogo": null,
    "awayLogo": null,
    "venue": {
      "name": "Neyland Stadium",
      "lat": 35.9551,
      "lng": -83.9252
    },
    "division": "fbs"
  },
  {
    "id": "2025-fbs-401752815",
    "week": 2,
    "date": "2025-09-06",
    "day": "Saturday",
    "kickoff": "7:30p",
    "home": "Ohio State",
    "away": "Grambling",
    "homeLogo": null,
    "awayLogo": null,
    "venue": {
      "name": "Ohio Stadium",
      "lat": 40.0018,
      "lng": -83.0197
    },
    "division": "fbs"
  },
  {
    "id": "2025-fbs-401754637",
    "week": 2,
    "date": "2025-09-06",
    "day": "Saturday",
    "kickoff": "7:30p",
    "home": "Clemson",
    "away": "Troy",
    "homeLogo": null,
    "awayLogo": null,
    "venue": {
      "name": "Memorial Stadium (Clemson, SC)",
      "lat": 34.6784,
      "lng": -82.8444
    },
    "division": "fbs"
  },
  {
    "id": "2025-fbs-401752686",
    "week": 2,
    "date": "2025-09-06",
    "day": "Saturday",
    "kickoff": "7:30p",
    "home": "Kentucky",
    "away": "Ole Miss",
    "homeLogo": null,
    "awayLogo": null,
    "venue": {
      "name": "Kroger Field",
      "lat": 38.022,
      "lng": -84.5037
    },
    "division": "fbs"
  },
  {
    "id": "2025-fbs-401752824",
    "week": 2,
    "date": "2025-09-06",
    "day": "Saturday",
    "kickoff": "7:30p",
    "home": "Oregon",
    "away": "Oklahoma State",
    "homeLogo": null,
    "awayLogo": null,
    "venue": {
      "name": "Autzen Stadium",
      "lat": 44.0584,
      "lng": -123.0681
    },
    "division": "fbs"
  },
  {
    "id": "2025-fbs-401752685",
    "week": 2,
    "date": "2025-09-06",
    "day": "Saturday",
    "kickoff": "7:30p",
    "home": "Georgia",
    "away": "Austin Peay",
    "homeLogo": null,
    "awayLogo": null,
    "venue": {
      "name": "Sanford Stadium",
      "lat": 33.9498,
      "lng": -83.3732
    },
    "division": "fbs"
  },
  {
    "id": "2025-fbs-401760367",
    "week": 2,
    "date": "2025-09-06",
    "day": "Saturday",
    "kickoff": "8p",
    "home": "Wyoming",
    "away": "Northern Iowa",
    "homeLogo": "https://a.espncdn.com/i/teamlogos/ncaa/500/2751.png",
    "awayLogo": "https://a.espncdn.com/i/teamlogos/ncaa/500/2460.png",
    "venue": {
      "name": "War Memorial Stadium",
      "lat": 41.307,
      "lng": -105.5677
    },
    "division": "fbs"
  },
  {
    "id": "2025-fbs-401752820",
    "week": 2,
    "date": "2025-09-06",
    "day": "Saturday",
    "kickoff": "8p",
    "home": "Wisconsin",
    "away": "Middle Tennessee",
    "homeLogo": null,
    "awayLogo": null,
    "venue": {
      "name": "Camp Randall Stadium",
      "lat": 43.0703,
      "lng": -89.4124
    },
    "division": "fbs"
  },
  {
    "id": "2025-fbs-401752684",
    "week": 2,
    "date": "2025-09-06",
    "day": "Saturday",
    "kickoff": "8:15p",
    "home": "Florida",
    "away": "South Florida",
    "homeLogo": null,
    "awayLogo": null,
    "venue": {
      "name": "Ben Hill Griffin Stadium",
      "lat": 29.65,
      "lng": -82.3486
    },
    "division": "fbs"
  },
  {
    "id": "2025-fbs-401760365",
    "week": 2,
    "date": "2025-09-06",
    "day": "Saturday",
    "kickoff": "9p",
    "home": "Nevada",
    "away": "Sacramento State",
    "homeLogo": "https://a.espncdn.com/i/teamlogos/ncaa/500/2440.png",
    "awayLogo": null,
    "venue": {
      "name": "Mackay Stadium",
      "lat": 39.5468,
      "lng": -119.8175
    },
    "division": "fbs"
  },
  {
    "id": "2025-fbs-401752682",
    "week": 2,
    "date": "2025-09-06",
    "day": "Saturday",
    "kickoff": "9p",
    "home": "Arkansas",
    "away": "Arkansas State",
    "homeLogo": null,
    "awayLogo": null,
    "venue": {
      "name": "War Memorial Stadium",
      "lat": 41.307,
      "lng": -105.5677
    },
    "division": "fbs"
  },
  {
    "id": "2025-fbs-401754530",
    "week": 2,
    "date": "2025-09-06",
    "day": "Saturday",
    "kickoff": "10p",
    "home": "California",
    "away": "Texas Southern",
    "homeLogo": null,
    "awayLogo": null,
    "venue": {
      "name": "California Memorial Stadium",
      "lat": 37.8713,
      "lng": -122.2507
    },
    "division": "fbs"
  },
  {
    "id": "2025-fbs-401756887",
    "week": 2,
    "date": "2025-09-06",
    "day": "Saturday",
    "kickoff": "10p",
    "home": "Utah",
    "away": "Cal Poly",
    "homeLogo": "https://a.espncdn.com/i/teamlogos/ncaa/500/254.png",
    "awayLogo": null,
    "venue": {
      "name": "Rice-Eccles Stadium",
      "lat": 40.7597,
      "lng": -111.8478
    },
    "division": "fbs"
  },
  {
    "id": "2025-fbs-401756884",
    "week": 2,
    "date": "2025-09-06",
    "day": "Saturday",
    "kickoff": "11p",
    "home": "Rice",
    "away": "Houston",
    "homeLogo": null,
    "awayLogo": null,
    "venue": {
      "name": "Jack Trice Stadium",
      "lat": 42.014,
      "lng": -93.6356
    },
    "division": "fbs"
  },
  {
    "id": "2025-fbs-401754641",
    "week": 2,
    "date": "2025-09-06",
    "day": "Saturday",
    "kickoff": "11p",
    "home": "Miami",
    "away": "Bethune-Cookman",
    "homeLogo": null,
    "awayLogo": null,
    "venue": {
      "name": "Hard Rock Stadium",
      "lat": 25.958,
      "lng": -80.2389
    },
    "division": "fbs"
  },
  {
    "id": "2025-fbs-401762795",
    "week": 2,
    "date": "2025-09-06",
    "day": "Saturday",
    "kickoff": "11p",
    "home": "Eastern Michigan",
    "away": "Long Island University",
    "homeLogo": null,
    "awayLogo": null,
    "venue": {
      "name": "Rynearson Stadium",
      "lat": 42.2473,
      "lng": -83.6253
    },
    "division": "fbs"
  },
  {
    "id": "2025-fbs-401760364",
    "week": 2,
    "date": "2025-09-06",
    "day": "Saturday",
    "kickoff": "11p",
    "home": "Colorado State",
    "away": "Northern Colorado",
    "homeLogo": "https://a.espncdn.com/i/teamlogos/ncaa/500/36.png",
    "awayLogo": null,
    "venue": {
      "name": "Canvas Stadium",
      "lat": 40.5749,
      "lng": -105.0896
    },
    "division": "fbs"
  },
  {
    "id": "2025-fbs-401752810",
    "week": 2,
    "date": "2025-09-06",
    "day": "Saturday",
    "kickoff": "11:30p",
    "home": "Nebraska",
    "away": "Akron",
    "homeLogo": null,
    "awayLogo": "https://a.espncdn.com/i/teamlogos/ncaa/500/2006.png",
    "venue": {
      "name": "Memorial Stadium (Lincoln, NE)",
      "lat": 40.8202,
      "lng": -96.7055
    },
    "division": "fbs"
  },
  {
    "id": "2025-fbs-401752683",
    "week": 2,
    "date": "2025-09-06",
    "day": "Saturday",
    "kickoff": "11:30p",
    "home": "Auburn",
    "away": "Ball State",
    "homeLogo": null,
    "awayLogo": null,
    "venue": {
      "name": "Jordan-Hare Stadium",
      "lat": 32.6017,
      "lng": -85.4893
    },
    "division": "fbs"
  },
  {
    "id": "2025-fbs-401752687",
    "week": 2,
    "date": "2025-09-06",
    "day": "Saturday",
    "kickoff": "11:30p",
    "home": "LSU",
    "away": "Louisiana Tech",
    "homeLogo": null,
    "awayLogo": null,
    "venue": {
      "name": "Tiger Stadium (LA)",
      "lat": 30.4122,
      "lng": -91.1839
    },
    "division": "fbs"
  },
  {
    "id": "2025-fbs-401752814",
    "week": 2,
    "date": "2025-09-06",
    "day": "Saturday",
    "kickoff": "11:30p",
    "home": "USC",
    "away": "Georgia Southern",
    "homeLogo": null,
    "awayLogo": null,
    "venue": {
      "name": "Los Angeles Memorial Coliseum",
      "lat": 34.0141,
      "lng": -118.2879
    },
    "division": "fbs"
  },
  {
    "id": "2025-fbs-401752695",
    "week": 2,
    "date": "2025-09-06",
    "day": "Saturday",
    "kickoff": "11:30p",
    "home": "Virginia Tech",
    "away": "Vanderbilt",
    "homeLogo": null,
    "awayLogo": null,
    "venue": {
      "name": "Lane Stadium",
      "lat": 37.2206,
      "lng": -80.4183
    },
    "division": "fbs"
  },
  {
    "id": "2025-fbs-401752816",
    "week": 2,
    "date": "2025-09-06",
    "day": "Saturday",
    "kickoff": "11:30p",
    "home": "Michigan State",
    "away": "Boston College",
    "homeLogo": null,
    "awayLogo": null,
    "venue": {
      "name": "Spartan Stadium",
      "lat": 37.3975,
      "lng": -121.8635
    },
    "division": "fbs"
  },
  {
    "id": "2025-fbs-401752681",
    "week": 2,
    "date": "2025-09-06",
    "day": "Saturday",
    "kickoff": "11:45p",
    "home": "Alabama",
    "away": "UL Monroe",
    "homeLogo": null,
    "awayLogo": null,
    "venue": {
      "name": "Bryant-Denny Stadium",
      "lat": 33.208,
      "lng": -87.5502
    },
    "division": "fbs"
  },
  {
    "id": "2025-fbs-401752823",
    "week": 2,
    "date": "2025-09-07",
    "day": "Sunday",
    "kickoff": "12a",
    "home": "UNLV",
    "away": "UCLA",
    "homeLogo": "https://a.espncdn.com/i/teamlogos/ncaa/500/2439.png",
    "awayLogo": null,
    "venue": {
      "name": "Allegiant Stadium",
      "lat": 36.0909,
      "lng": -115.1833
    },
    "division": "fbs"
  },
  {
    "id": "2025-fbs-401757231",
    "week": 2,
    "date": "2025-09-07",
    "day": "Sunday",
    "kickoff": "1a",
    "home": "UTEP",
    "away": "UT Martin",
    "homeLogo": null,
    "awayLogo": null,
    "venue": {
      "name": "Sun Bowl",
      "lat": 31.7688,
      "lng": -106.4992
    },
    "division": "fbs"
  },
  {
    "id": "2025-fbs-401756879",
    "week": 2,
    "date": "2025-09-07",
    "day": "Sunday",
    "kickoff": "2a",
    "home": "Arizona",
    "away": "Weber State",
    "homeLogo": null,
    "awayLogo": null,
    "venue": {
      "name": "Arizona Stadium",
      "lat": 32.2287,
      "lng": -110.9489
    },
    "division": "fbs"
  },
  {
    "id": "2025-fbs-401754526",
    "week": 2,
    "date": "2025-09-07",
    "day": "Sunday",
    "kickoff": "2:15a",
    "home": "BYU",
    "away": "Stanford",
    "homeLogo": null,
    "awayLogo": "https://a.espncdn.com/i/teamlogos/ncaa/500/24.png",
    "venue": {
      "name": "LaVell Edwards Stadium",
      "lat": 40.2578,
      "lng": -111.6563
    },
    "division": "fbs"
  },
  {
    "id": "2025-fbs-401752821",
    "week": 2,
    "date": "2025-09-07",
    "day": "Sunday",
    "kickoff": "3a",
    "home": "Washington",
    "away": "UC Davis",
    "homeLogo": null,
    "awayLogo": null,
    "venue": {
      "name": "Husky Stadium",
      "lat": 47.6504,
      "lng": -122.3016
    },
    "division": "fbs"
  },
  {
    "id": "2025-fbs-401757230",
    "week": 2,
    "date": "2025-09-07",
    "day": "Sunday",
    "kickoff": "3:59a",
    "home": "Hawai'i",
    "away": "Sam Houston",
    "homeLogo": "https://a.espncdn.com/i/teamlogos/ncaa/500/62.png",
    "awayLogo": null,
    "venue": {
      "name": "Clarence T.C. Ching Athletics Complex",
      "lat": 21.294,
      "lng": -157.818
    },
    "division": "fbs"
  }
]