[
  {
    "id": "2025-ncaa-401754375",
    "sourceId": 401754375,
    "sourceWeek": 1,
    "week": 2,
    "date": "2025-08-30",
    "day": "Saturday",
    "kickoff": "12a",
    "home": "Colorado",
    "away": "Georgia Tech",
    "homeDivision": "fbs",
    "awayDivision": "fbs",
    "homeLogo": "https://a.espncdn.com/i/teamlogos/ncaa/500/38.png",
    "awayLogo": null,
    "venue": {
      "name": "Folsom Field",
      "lat": 40.0096,
      "lng": -105.2644
    },
    "missingVenue": false,
    "division": "fbs"
  },
  {
    "id": "2025-ncaa-401760358",
    "sourceId": 401760358,
    "sourceWeek": 1,
    "week": 2,
    "date": "2025-08-30",
    "day": "Saturday",
    "kickoff": "2:30a",
    "home": "San José State",
    "away": "Central Michigan",
    "homeDivision": "fbs",
    "awayDivision": "fbs",
    "homeLogo": "https://a.espncdn.com/i/teamlogos/ncaa/500/23.png",
    "awayLogo": "https://a.espncdn.com/i/teamlogos/ncaa/500/2117.png",
    "venue": {
      "name": "CEFCU Stadium",
      "lat": 37.3197,
      "lng": -121.8684
    },
    "missingVenue": false,
    "division": "fbs"
  },
  {
    "id": "2025-ncaa-401752676",
    "sourceId": 401752676,
    "sourceWeek": 1,
    "week": 2,
    "date": "2025-08-30",
    "day": "Saturday",
    "kickoff": "4p",
    "home": "Tennessee",
    "away": "Syracuse",
    "homeDivision": "fbs",
    "awayDivision": "fbs",
    "homeLogo": null,
    "awayLogo": null,
    "venue": {
      "name": "Mercedes-Benz Stadium",
      "lat": 33.7553,
      "lng": -84.4006
    },
    "missingVenue": false,
    "division": "fbs"
  },
  {
    "id": "2025-ncaa-401752797",
    "sourceId": 401752797,
    "sourceWeek": 1,
    "week": 2,
    "date": "2025-08-30",
    "day": "Saturday",
    "kickoff": "4p",
    "home": "Maryland",
    "away": "Florida Atlantic",
    "homeDivision": "fbs",
    "awayDivision": "fbs",
    "homeLogo": null,
    "awayLogo": null,
    "venue": {
      "name": "SECU Stadium",
      "lat": 38.9941,
      "lng": -76.948
    },
    "missingVenue": false,
    "division": "fbs"
  },
  {
    "id": "2025-ncaa-401752677",
    "sourceId": 401752677,
    "sourceWeek": 1,
    "week": 2,
    "date": "2025-08-30",
    "day": "Saturday",
    "kickoff": "4p",
    "home": "Ohio State",
    "away": "Texas",
    "homeDivision": "fbs",
    "awayDivision": "fbs",
    "homeLogo": null,
    "awayLogo": "https://a.espncdn.com/i/teamlogos/ncaa/500/251.png",
    "venue": {
      "name": "Ohio Stadium",
      "lat": 40.0018,
      "lng": -83.0197
    },
    "missingVenue": false,
    "division": "fbs"
  },
  {
    "id": "2025-ncaa-401754520",
    "sourceId": 401754520,
    "sourceWeek": 1,
    "week": 2,
    "date": "2025-08-30",
    "day": "Saturday",
    "kickoff": "4p",
    "home": "Pittsburgh",
    "away": "Duquesne",
    "homeDivision": "fbs",
    "awayDivision": "fcs",
    "homeLogo": null,
    "awayLogo": null,
    "venue": {
      "name": "Acrisure Stadium",
      "lat": 40.4468,
      "lng": -80.0158
    },
    "missingVenue": false,
    "division": "fbs"
  },
  {
    "id": "2025-ncaa-401752670",
    "sourceId": 401752670,
    "sourceWeek": 1,
    "week": 2,
    "date": "2025-08-30",
    "day": "Saturday",
    "kickoff": "4:45p",
    "home": "Kentucky",
    "away": "Toledo",
    "homeDivision": "fbs",
    "awayDivision": "fbs",
    "homeLogo": null,
    "awayLogo": null,
    "venue": {
      "name": "Kroger Field",
      "lat": 38.022,
      "lng": -84.5037
    },
    "missingVenue": false,
    "division": "fbs"
  },
  {
    "id": "2025-ncaa-401752806",
    "sourceId": 401752806,
    "sourceWeek": 1,
    "week": 2,
    "date": "2025-08-30",
    "day": "Saturday",
    "kickoff": "6:30p",
    "home": "Indiana",
    "away": "Old Dominion",
    "homeDivision": "fbs",
    "awayDivision": "fbs",
    "homeLogo": null,
    "awayLogo": null,
    "venue": {
      "name": "Memorial Stadium (Bloomington, IN)",
      "lat": 39.1793,
      "lng": -86.5232
    },
    "missingVenue": false,
    "division": "fbs"
  },
  {
    "id": "2025-ncaa-401752665",
    "sourceId": 401752665,
    "sourceWeek": 1,
    "week": 2,
    "date": "2025-08-30",
    "day": "Saturday",
    "kickoff": "7:30p",
    "home": "Florida State",
    "away": "Alabama",
    "homeDivision": "fbs",
    "awayDivision": "fbs",
    "homeLogo": null,
    "awayLogo": null,
    "venue": {
      "name": "Doak Campbell Stadium",
      "lat": 30.4384,
      "lng": -84.3045
    },
    "missingVenue": false,
    "division": "fbs"
  },
  {
    "id": "2025-ncaa-401752807",
    "sourceId": 401752807,
    "sourceWeek": 1,
    "week": 2,
    "date": "2025-08-30",
    "day": "Saturday",
    "kickoff": "7:30p",
    "home": "Penn State",
    "away": "Nevada",
    "homeDivision": "fbs",
    "awayDivision": "fbs",
    "homeLogo": null,
    "awayLogo": "https://a.espncdn.com/i/teamlogos/ncaa/500/2440.png",
    "venue": {
      "name": "Beaver Stadium",
      "lat": 40.8122,
      "lng": -77.8561
    },
    "missingVenue": false,
    "division": "fbs"
  },
  {
    "id": "2025-ncaa-401756853",
    "sourceId": 401756853,
    "sourceWeek": 1,
    "week": 2,
    "date": "2025-08-30",
    "day": "Saturday",
    "kickoff": "7:30p",
    "home": "Iowa State",
    "away": "South Dakota",
    "homeDivision": "fbs",
    "awayDivision": "fcs",
    "homeLogo": null,
    "awayLogo": null,
    "venue": {
      "name": "Jack Trice Stadium",
      "lat": 42.014,
      "lng": -93.6356
    },
    "missingVenue": false,
    "division": "fbs"
  },
  {
    "id": "2025-ncaa-401760359",
    "sourceId": 401760359,
    "sourceWeek": 1,
    "week": 2,
    "date": "2025-08-30",
    "day": "Saturday",
    "kickoff": "7:30p",
    "home": "Air Force",
    "away": "Bucknell",
    "homeDivision": "fbs",
    "awayDivision": "fcs",
    "homeLogo": "https://a.espncdn.com/i/teamlogos/ncaa/500/2005.png",
    "awayLogo": null,
    "venue": {
      "name": "Falcon Stadium",
      "lat": 38.9967,
      "lng": -104.8436
    },
    "missingVenue": false,
    "division": "fbs"
  },
  {
    "id": "2025-ncaa-401762793",
    "sourceId": 401762793,
    "sourceWeek": 1,
    "week": 2,
    "date": "2025-08-30",
    "day": "Saturday",
    "kickoff": "7:30p",
    "home": "Northern Illinois",
    "away": "Holy Cross",
    "homeDivision": "fbs",
    "awayDivision": "fcs",
    "homeLogo": null,
    "awayLogo": null,
    "venue": {
      "name": "Huskie Stadium",
      "lat": 41.9308,
      "lng": -88.7572
    },
    "missingVenue": false,
    "division": "fbs"
  },
  {
    "id": "2025-ncaa-401752669",
    "sourceId": 401752669,
    "sourceWeek": 1,
    "week": 2,
    "date": "2025-08-30",
    "day": "Saturday",
    "kickoff": "7:30p",
    "home": "Georgia",
    "away": "Marshall",
    "homeDivision": "fbs",
    "awayDivision": "fbs",
    "homeLogo": null,
    "awayLogo": null,
    "venue": {
      "name": "Sanford Stadium",
      "lat": 33.9498,
      "lng": -83.3732
    },
    "missingVenue": false,
    "division": "fbs"
  },
  {
    "id": "2025-ncaa-401752804",
    "sourceId": 401752804,
    "sourceWeek": 1,
    "week": 2,
    "date": "2025-08-30",
    "day": "Saturday",
    "kickoff": "8p",
    "home": "Oregon",
    "away": "Montana State",
    "homeDivision": "fbs",
    "awayDivision": "fcs",
    "homeLogo": null,
    "awayLogo": null,
    "venue": {
      "name": "Autzen Stadium",
      "lat": 44.0584,
      "lng": -123.0681
    },
    "missingVenue": false,
    "division": "fbs"
  },
  {
    "id": "2025-ncaa-401752666",
    "sourceId": 401752666,
    "sourceWeek": 1,
    "week": 2,
    "date": "2025-08-30",
    "day": "Saturday",
    "kickoff": "8:15p",
    "home": "Arkansas",
    "away": "Alabama A&M",
    "homeDivision": "fbs",
    "awayDivision": "fcs",
    "homeLogo": null,
    "awayLogo": null,
    "venue": {
      "name": "Razorback Stadium",
      "lat": 36.0684,
      "lng": -94.1789
    },
    "missingVenue": false,
    "division": "fbs"
  },
  {
    "id": "2025-ncaa-401752799",
    "sourceId": 401752799,
    "sourceWeek": 1,
    "week": 2,
    "date": "2025-08-30",
    "day": "Saturday",
    "kickoff": "10p",
    "home": "Iowa",
    "away": "UAlbany",
    "homeDivision": "fbs",
    "awayDivision": "fcs",
    "homeLogo": null,
    "awayLogo": null,
    "venue": {
      "name": "Kinnick Stadium",
      "lat": 41.6581,
      "lng": -91.5509
    },
    "missingVenue": false,
    "division": "fbs"
  },
  {
    "id": "2025-ncaa-401752678",
    "sourceId": 401752678,
    "sourceWeek": 1,
    "week": 2,
    "date": "2025-08-30",
    "day": "Saturday",
    "kickoff": "11p",
    "home": "Texas A&M",
    "away": "UTSA",
    "homeDivision": "fbs",
    "awayDivision": "fbs",
    "homeLogo": null,
    "awayLogo": null,
    "venue": {
      "name": "Kyle Field",
      "lat": 30.61,
      "lng": -96.34
    },
    "missingVenue": false,
    "division": "fbs"
  },
  {
    "id": "2025-ncaa-401752679",
    "sourceId": 401752679,
    "sourceWeek": 1,
    "week": 2,
    "date": "2025-08-30",
    "day": "Saturday",
    "kickoff": "11p",
    "home": "Vanderbilt",
    "away": "Charleston Southern",
    "homeDivision": "fbs",
    "awayDivision": "fcs",
    "homeLogo": null,
    "awayLogo": null,
    "venue": {
      "name": "FirstBank Stadium",
      "lat": 36.0103,
      "lng": -86.8051
    },
    "missingVenue": false,
    "division": "fbs"
  },
  {
    "id": "2025-ncaa-401752668",
    "sourceId": 401752668,
    "sourceWeek": 1,
    "week": 2,
    "date": "2025-08-30",
    "day": "Saturday",
    "kickoff": "11p",
    "home": "Florida",
    "away": "Long Island University",
    "homeDivision": "fbs",
    "awayDivision": "fcs",
    "homeLogo": null,
    "awayLogo": null,
    "venue": {
      "name": "Ben Hill Griffin Stadium",
      "lat": 29.65,
      "lng": -82.3486
    },
    "missingVenue": false,
    "division": "fbs"
  },
  {
    "id": "2025-ncaa-401752671",
    "sourceId": 401752671,
    "sourceWeek": 1,
    "week": 2,
    "date": "2025-08-30",
    "day": "Saturday",
    "kickoff": "11:30p",
    "home": "Clemson",
    "away": "LSU",
    "homeDivision": "fbs",
    "awayDivision": "fbs",
    "homeLogo": null,
    "awayLogo": null,
    "venue": {
      "name": "Memorial Stadium (Clemson, SC)",
      "lat": 34.6784,
      "lng": -82.8444
    },
    "missingVenue": false,
    "division": "fbs"
  },
  {
    "id": "2025-ncaa-401752798",
    "sourceId": 401752798,
    "sourceWeek": 1,
    "week": 2,
    "date": "2025-08-30",
    "day": "Saturday",
    "kickoff": "11:30p",
    "home": "USC",
    "away": "Missouri State",
    "homeDivision": "fbs",
    "awayDivision": "fbs",
    "homeLogo": null,
    "awayLogo": null,
    "venue": {
      "name": "Los Angeles Memorial Coliseum",
      "lat": 34.0141,
      "lng": -118.2879
    },
    "missingVenue": false,
    "division": "fbs"
  },
  {
    "id": "2025-ncaa-401757225",
    "sourceId": 401757225,
    "sourceWeek": 1,
    "week": 2,
    "date": "2025-08-30",
    "day": "Saturday",
    "kickoff": "11:30p",
    "home": "Utah State",
    "away": "UTEP",
    "homeDivision": "fbs",
    "awayDivision": "fbs",
    "homeLogo": "https://a.espncdn.com/i/teamlogos/ncaa/500/328.png",
    "awayLogo": null,
    "venue": {
      "name": "Maverik Stadium",
      "lat": 41.7517,
      "lng": -111.8116
    },
    "missingVenue": false,
    "division": "fbs"
  },
  {
    "id": "2025-ncaa-401752808",
    "sourceId": 401752808,
    "sourceWeek": 1,
    "week": 2,
    "date": "2025-08-30",
    "day": "Saturday",
    "kickoff": "11:30p",
    "home": "Michigan",
    "away": "New Mexico",
    "homeDivision": "fbs",
    "awayDivision": "fbs",
    "homeLogo": null,
    "awayLogo": "https://a.espncdn.com/i/teamlogos/ncaa/500/167.png",
    "venue": {
      "name": "Michigan Stadium",
      "lat": 42.2658,
      "lng": -83.7487
    },
    "missingVenue": false,
    "division": "fbs"
  },
  {
    "id": "2025-ncaa-401762435",
    "sourceId": 401762435,
    "sourceWeek": 1,
    "week": 2,
    "date": "2025-08-31",
    "day": "Sunday",
    "kickoff": "12a",
    "home": "North Texas",
    "away": "Lamar",
    "homeDivision": "fbs",
    "awayDivision": "fcs",
    "homeLogo": null,
    "awayLogo": null,
    "venue": {
      "name": "DATCU Stadium",
      "lat": 33.2071,
      "lng": -97.1514
    },
    "missingVenue": false,
    "division": "fbs"
  },
  {
    "id": "2025-ncaa-401756851",
    "sourceId": 401756851,
    "sourceWeek": 1,
    "week": 2,
    "date": "2025-08-31",
    "day": "Sunday",
    "kickoff": "12a",
    "home": "BYU",
    "away": "Portland State",
    "homeDivision": "fbs",
    "awayDivision": "fcs",
    "homeLogo": null,
    "awayLogo": null,
    "venue": {
      "name": "LaVell Edwards Stadium",
      "lat": 40.2578,
      "lng": -111.6563
    },
    "missingVenue": false,
    "division": "fbs"
  },
  {
    "id": "2025-ncaa-401761594",
    "sourceId": 401761594,
    "sourceWeek": 1,
    "week": 2,
    "date": "2025-08-31",
    "day": "Sunday",
    "kickoff": "12a",
    "home": "Texas State",
    "away": "Eastern Michigan",
    "homeDivision": "fbs",
    "awayDivision": "fbs",
    "homeLogo": null,
    "awayLogo": null,
    "venue": {
      "name": "Bobcat Stadium (TX)",
      "lat": 29.8911,
      "lng": -97.9256
    },
    "missingVenue": false,
    "division": "fbs"
  },
  {
    "id": "2025-ncaa-401760361",
    "sourceId": 401760361,
    "sourceWeek": 1,
    "week": 2,
    "date": "2025-08-31",
    "day": "Sunday",
    "kickoff": "1:30a",
    "home": "Fresno State",
    "away": "Georgia Southern",
    "homeDivision": "fbs",
    "awayDivision": "fbs",
    "homeLogo": "https://a.espncdn.com/i/teamlogos/ncaa/500/278.png",
    "awayLogo": null,
    "venue": {
      "name": "Valley Children's Stadium",
      "lat": 36.8144,
      "lng": -119.758
    },
    "missingVenue": false,
    "division": "fbs"
  },
  {
    "id": "2025-ncaa-401752947",
    "sourceId": 401752947,
    "sourceWeek": 1,
    "week": 2,
    "date": "2025-08-31",
    "day": "Sunday",
    "kickoff": "2a",
    "home": "Washington State",
    "away": "Idaho",
    "homeDivision": "fbs",
    "awayDivision": "fcs",
    "homeLogo": null,
    "awayLogo": "https://a.espncdn.com/i/teamlogos/ncaa/500/70.png",
    "venue": {
      "name": "Gesa Field",
      "lat": 46.7318,
      "lng": -117.1601
    },
    "missingVenue": false,
    "division": "fbs"
  },
  {
    "id": "2025-ncaa-401752936",
    "sourceId": 401752936,
    "sourceWeek": 1,
    "week": 2,
    "date": "2025-08-31",
    "day": "Sunday",
    "kickoff": "2:30a",
    "home": "Oregon State",
    "away": "California",
    "homeDivision": "fbs",
    "awayDivision": "fbs",
    "homeLogo": null,
    "awayLogo": null,
    "venue": {
      "name": "Reser Stadium",
      "lat": 44.559,
      "lng": -123.2814
    },
    "missingVenue": false,
    "division": "fbs"
  },
  {
    "id": "2025-ncaa-401756849",
    "sourceId": 401756849,
    "sourceWeek": 1,
    "week": 2,
    "date": "2025-08-31",
    "day": "Sunday",
    "kickoff": "2:30a",
    "home": "Arizona",
    "away": "Hawai'i",
    "homeDivision": "fbs",
    "awayDivision": "fbs",
    "homeLogo": null,
    "awayLogo": "https://a.espncdn.com/i/teamlogos/ncaa/500/62.png",
    "venue": {
      "name": "Arizona Stadium",
      "lat": 32.2287,
      "lng": -110.9489
    },
    "missingVenue": false,
    "division": "fbs"
  },
  {
    "id": "2025-ncaa-401752805",
    "sourceId": 401752805,
    "sourceWeek": 1,
    "week": 2,
    "date": "2025-08-31",
    "day": "Sunday",
    "kickoff": "3a",
    "home": "Washington",
    "away": "Colorado State",
    "homeDivision": "fbs",
    "awayDivision": "fbs",
    "homeLogo": null,
    "awayLogo": "https://a.espncdn.com/i/teamlogos/ncaa/500/36.png",
    "venue": {
      "name": "Husky Stadium",
      "lat": 47.6504,
      "lng": -122.3016
    },
    "missingVenue": false,
    "division": "fbs"
  },
  {
    "id": "2025-ncaa-401752800",
    "sourceId": 401752800,
    "sourceWeek": 1,
    "week": 2,
    "date": "2025-08-31",
    "day": "Sunday",
    "kickoff": "3a",
    "home": "UCLA",
    "away": "Utah",
    "homeDivision": "fbs",
    "awayDivision": "fbs",
    "homeLogo": null,
    "awayLogo": "https://a.espncdn.com/i/teamlogos/ncaa/500/254.png",
    "venue": {
      "name": "Rose Bowl",
      "lat": 34.1611,
      "lng": -118.1676
    },
    "missingVenue": false,
    "division": "fbs"
  },
  {
    "id": "2025-ncaa-401752680",
    "sourceId": 401752680,
    "sourceWeek": 1,
    "week": 2,
    "date": "2025-08-31",
    "day": "Sunday",
    "kickoff": "7p",
    "home": "South Carolina",
    "away": "Virginia Tech",
    "homeDivision": "fbs",
    "awayDivision": "fbs",
    "homeLogo": null,
    "awayLogo": null,
    "venue": {
      "name": "Mercedes-Benz Stadium",
      "lat": 33.7553,
      "lng": -84.4006
    },
    "missingVenue": false,
    "division": "fbs"
  },
  {
    "id": "2025-ncaa-401754522",
    "sourceId": 401754522,
    "sourceWeek": 1,
    "week": 2,
    "date": "2025-08-31",
    "day": "Sunday",
    "kickoff": "11:30p",
    "home": "Miami",
    "away": "Notre Dame",
    "homeDivision": "fbs",
    "awayDivision": "fbs",
    "homeLogo": null,
    "awayLogo": null,
    "venue": {
      "name": "Hard Rock Stadium",
      "lat": 25.958,
      "lng": -80.2389
    },
    "missingVenue": false,
    "division": "fbs"
  },
  {
    "id": "2025-ncaa-401754523",
    "sourceId": 401754523,
    "sourceWeek": 1,
    "week": 2,
    "date": "2025-09-02",
    "day": "Tuesday",
    "kickoff": "12a",
    "home": "North Carolina",
    "away": "TCU",
    "homeDivision": "fbs",
    "awayDivision": "fbs",
    "homeLogo": null,
    "awayLogo": null,
    "venue": {
      "name": "Kenan Stadium",
      "lat": 35.9096,
      "lng": -79.0478
    },
    "missingVenue": false,
    "division": "fbs"
  },
  {
    "id": "2025-ncaa-401752826",
    "sourceId": 401752826,
    "sourceWeek": 2,
    "week": 2,
    "date": "2025-09-05",
    "day": "Friday",
    "kickoff": "11:30p",
    "home": "Maryland",
    "away": "Northern Illinois",
    "homeDivision": "fbs",
    "awayDivision": "fbs",
    "homeLogo": null,
    "awayLogo": null,
    "venue": {
      "name": "SECU Stadium",
      "lat": 38.9941,
      "lng": -76.948
    },
    "missingVenue": false,
    "division": "fbs"
  },
  {
    "id": "2025-ncaa-401752817",
    "sourceId": 401752817,
    "sourceWeek": 2,
    "week": 2,
    "date": "2025-09-05",
    "day": "Friday",
    "kickoff": "11:30p",
    "home": "Northwestern",
    "away": "Western Illinois",
    "homeDivision": "fbs",
    "awayDivision": "fcs",
    "homeLogo": null,
    "awayLogo": null,
    "venue": {
      "name": "Lanny and Sharon Martin Stadium",
      "lat": 34.361,
      "lng": -103.2067
    },
    "missingVenue": false,
    "division": "fbs"
  }
]