[
  {
    "id": "2025-fbs-401762443",
    "week": 10,
    "date": "2025-10-30",
    "day": "Thursday",
    "kickoff": "11:30p",
    "home": "UTSA",
    "away": "Tulane",
    "homeLogo": null,
    "awayLogo": null,
    "venue": {
      "name": "Alamodome",
      "lat": 29.4191,
      "lng": -98.4737
    },
    "division": "fbs"
  },
  {
    "id": "2025-fbs-401762497",
    "week": 10,
    "date": "2025-10-31",
    "day": "Friday",
    "kickoff": "11p",
    "home": "Rice",
    "away": "Memphis",
    "homeLogo": null,
    "awayLogo": null,
    "venue": {
      "name": "Jack Trice Stadium",
      "lat": 42.014,
      "lng": -93.6356
    },
    "division": "fbs"
  },
  {
    "id": "2025-fbs-401754575",
    "week": 10,
    "date": "2025-10-31",
    "day": "Friday",
    "kickoff": "11:30p",
    "home": "Syracuse",
    "away": "North Carolina",
    "homeLogo": null,
    "awayLogo": null,
    "venue": {
      "name": "JMA Wireless Dome",
      "lat": 43.0361,
      "lng": -76.1364
    },
    "division": "fbs"
  },
  {
    "id": "2025-fbs-401762849",
    "week": 10,
    "date": "2025-11-01",
    "day": "Saturday",
    "kickoff": "4p",
    "home": "Bowling Green",
    "away": "Buffalo",
    "homeLogo": null,
    "awayLogo": null,
    "venue": {
      "name": "Doyt L. Perry Stadium",
      "lat": 41.375,
      "lng": -83.635
    },
    "division": "fbs"
  },
  {
    "id": "2025-fbs-401760401",
    "week": 10,
    "date": "2025-11-01",
    "day": "Saturday",
    "kickoff": "4p",
    "home": "Air Force",
    "away": "Army",
    "homeLogo": "https://a.espncdn.com/i/teamlogos/ncaa/500/2005.png",
    "awayLogo": null,
    "venue": {
      "name": "Falcon Stadium",
      "lat": 38.9967,
      "lng": -104.8436
    },
    "division": "fbs"
  },
  {
    "id": "2025-fbs-401754577",
    "week": 10,
    "date": "2025-11-01",
    "day": "Saturday",
    "kickoff": "4p",
    "home": "Clemson",
    "away": "Duke",
    "homeLogo": null,
    "awayLogo": null,
    "venue": {
      "name": "Memorial Stadium (Clemson, SC)",
      "lat": 34.6784,
      "lng": -82.8444
    },
    "division": "fbs"
  },
  {
    "id": "2025-fbs-401762499",
    "week": 10,
    "date": "2025-11-01",
    "day": "Saturday",
    "kickoff": "4p",
    "home": "North Texas",
    "away": "Navy",
    "homeLogo": null,
    "awayLogo": null,
    "venue": {
      "name": "DATCU Stadium",
      "lat": 33.2071,
      "lng": -97.1514
    },
    "division": "fbs"
  },
  {
    "id": "2025-fbs-401752758",
    "week": 10,
    "date": "2025-11-01",
    "day": "Saturday",
    "kickoff": "4p",
    "home": "Texas",
    "away": "Vanderbilt",
    "homeLogo": "https://a.espncdn.com/i/teamlogos/ncaa/500/251.png",
    "awayLogo": null,
    "venue": {
      "name": "DKR-Texas Memorial Stadium",
      "lat": 30.2839,
      "lng": -97.7325
    },
    "division": "fbs"
  },
  {
    "id": "2025-fbs-401752889",
    "week": 10,
    "date": "2025-11-01",
    "day": "Saturday",
    "kickoff": "4p",
    "home": "Ohio State",
    "away": "Penn State",
    "homeLogo": null,
    "awayLogo": null,
    "venue": {
      "name": "Ohio Stadium",
      "lat": 40.0018,
      "lng": -83.0197
    },
    "division": "fbs"
  },
  {
    "id": "2025-fbs-401752891",
    "week": 10,
    "date": "2025-11-01",
    "day": "Saturday",
    "kickoff": "4p",
    "home": "Illinois",
    "away": "Rutgers",
    "homeLogo": null,
    "awayLogo": null,
    "venue": {
      "name": "Memorial Stadium (Champaign, IL)",
      "lat": 40.0993,
      "lng": -88.2358
    },
    "division": "fbs"
  },
  {
    "id": "2025-fbs-401756936",
    "week": 10,
    "date": "2025-11-01",
    "day": "Saturday",
    "kickoff": "4p",
    "home": "Baylor",
    "away": "UCF",
    "homeLogo": null,
    "awayLogo": null,
    "venue": {
      "name": "Lane Stadium",
      "lat": 37.2206,
      "lng": -80.4183
    },
    "division": "fbs"
  },
  {
    "id": "2025-fbs-401756938",
    "week": 10,
    "date": "2025-11-01",
    "day": "Saturday",
    "kickoff": "4p",
    "home": "Houston",
    "away": "West Virginia",
    "homeLogo": null,
    "awayLogo": null,
    "venue": {
      "name": "TDECU Stadium",
      "lat": 29.7211,
      "lng": -95.3506
    },
    "division": "fbs"
  },
  {
    "id": "2025-fbs-401756939",
    "week": 10,
    "date": "2025-11-01",
    "day": "Saturday",
    "kickoff": "5p",
    "home": "Iowa State",
    "away": "Arizona State",
    "homeLogo": null,
    "awayLogo": null,
    "venue": {
      "name": "Jack Trice Stadium",
      "lat": 42.014,
      "lng": -93.6356
    },
    "division": "fbs"
  },
  {
    "id": "2025-fbs-401762498",
    "week": 10,
    "date": "2025-11-01",
    "day": "Saturday",
    "kickoff": "6p",
    "home": "Temple",
    "away": "East Carolina",
    "homeLogo": null,
    "awayLogo": null,
    "venue": {
      "name": "Lincoln Financial Field",
      "lat": 39.9008,
      "lng": -75.1675
    },
    "division": "fbs"
  },
  {
    "id": "2025-fbs-401760404",
    "week": 10,
    "date": "2025-11-01",
    "day": "Saturday",
    "kickoff": "7p",
    "home": "UNLV",
    "away": "New Mexico",
    "homeLogo": "https://a.espncdn.com/i/teamlogos/ncaa/500/2439.png",
    "awayLogo": "https://a.espncdn.com/i/teamlogos/ncaa/500/167.png",
    "venue": {
      "name": "Allegiant Stadium",
      "lat": 36.0909,
      "lng": -115.1833
    },
    "division": "fbs"
  },
  {
    "id": "2025-fbs-401754580",
    "week": 10,
    "date": "2025-11-01",
    "day": "Saturday",
    "kickoff": "7p",
    "home": "Virginia Tech",
    "away": "Louisville",
    "homeLogo": null,
    "awayLogo": null,
    "venue": {
      "name": "Lane Stadium",
      "lat": 37.2206,
      "lng": -80.4183
    },
    "division": "fbs"
  },
  {
    "id": "2025-fbs-401752887",
    "week": 10,
    "date": "2025-11-01",
    "day": "Saturday",
    "kickoff": "7:30p",
    "home": "Maryland",
    "away": "Indiana",
    "homeLogo": null,
    "awayLogo": null,
    "venue": {
      "name": "SECU Stadium",
      "lat": 38.9941,
      "lng": -76.948
    },
    "division": "fbs"
  },
  {
    "id": "2025-fbs-401754582",
    "week": 10,
    "date": "2025-11-01",
    "day": "Saturday",
    "kickoff": "7:30p",
    "home": "Stanford",
    "away": "Pittsburgh",
    "homeLogo": "https://a.espncdn.com/i/teamlogos/ncaa/500/24.png",
    "awayLogo": null,
    "venue": {
      "name": "Stanford Stadium",
      "lat": 37.4344,
      "lng": -122.1614
    },
    "division": "fbs"
  },
  {
    "id": "2025-fbs-401752755",
    "week": 10,
    "date": "2025-11-01",
    "day": "Saturday",
    "kickoff": "7:30p",
    "home": "Florida",
    "away": "Georgia",
    "homeLogo": null,
    "awayLogo": null,
    "venue": {
      "name": "EverBank Stadium",
      "lat": 30.3239,
      "lng": -81.6373
    },
    "division": "fbs"
  },
  {
    "id": "2025-fbs-401754576",
    "week": 10,
    "date": "2025-11-01",
    "day": "Saturday",
    "kickoff": "7:45p",
    "home": "California",
    "away": "Virginia",
    "homeLogo": null,
    "awayLogo": null,
    "venue": {
      "name": "California Memorial Stadium",
      "lat": 37.8713,
      "lng": -122.2507
    },
    "division": "fbs"
  },
  {
    "id": "2025-fbs-401756940",
    "week": 10,
    "date": "2025-11-01",
    "day": "Saturday",
    "kickoff": "8p",
    "home": "Kansas",
    "away": "Oklahoma State",
    "homeLogo": null,
    "awayLogo": null,
    "venue": {
      "name": "War Memorial Stadium",
      "lat": 41.307,
      "lng": -105.5677
    },
    "division": "fbs"
  },
  {
    "id": "2025-fbs-401752753",
    "week": 10,
    "date": "2025-11-01",
    "day": "Saturday",
    "kickoff": "8p",
    "home": "Arkansas",
    "away": "Mississippi State",
    "homeLogo": null,
    "awayLogo": null,
    "venue": {
      "name": "Razorback Stadium",
      "lat": 36.0684,
      "lng": -94.1789
    },
    "division": "fbs"
  },
  {
    "id": "2025-fbs-401760405",
    "week": 10,
    "date": "2025-11-01",
    "day": "Saturday",
    "kickoff": "11p",
    "home": "San Diego State",
    "away": "Wyoming",
    "homeLogo": "https://a.espncdn.com/i/teamlogos/ncaa/500/21.png",
    "awayLogo": "https://a.espncdn.com/i/teamlogos/ncaa/500/2751.png",
    "venue": {
      "name": "Snapdragon Stadium",
      "lat": 32.7831,
      "lng": -117.1194
    },
    "division": "fbs"
  },
  {
    "id": "2025-fbs-401756937",
    "week": 10,
    "date": "2025-11-01",
    "day": "Saturday",
    "kickoff": "11p",
    "home": "Colorado",
    "away": "Arizona",
    "homeLogo": "https://a.espncdn.com/i/teamlogos/ncaa/500/38.png",
    "awayLogo": null,
    "venue": {
      "name": "Folsom Field",
      "lat": 40.0096,
      "lng": -105.2644
    },
    "division": "fbs"
  },
  {
    "id": "2025-fbs-401752890",
    "week": 10,
    "date": "2025-11-01",
    "day": "Saturday",
    "kickoff": "11p",
    "home": "Michigan",
    "away": "Purdue",
    "homeLogo": null,
    "awayLogo": null,
    "venue": {
      "name": "Michigan Stadium",
      "lat": 42.2658,
      "lng": -83.7487
    },
    "division": "fbs"
  },
  {
    "id": "2025-fbs-401754578",
    "week": 10,
    "date": "2025-11-01",
    "day": "Saturday",
    "kickoff": "11:30p",
    "home": "Florida State",
    "away": "Wake Forest",
    "homeLogo": null,
    "awayLogo": null,
    "venue": {
      "name": "Doak Campbell Stadium",
      "lat": 30.4384,
      "lng": -84.3045
    },
    "division": "fbs"
  },
  {
    "id": "2025-fbs-401752754",
    "week": 10,
    "date": "2025-11-01",
    "day": "Saturday",
    "kickoff": "11:30p",
    "home": "Auburn",
    "away": "Kentucky",
    "homeLogo": null,
    "awayLogo": null,
    "venue": {
      "name": "Jordan-Hare Stadium",
      "lat": 32.6017,
      "lng": -85.4893
    },
    "division": "fbs"
  },
  {
    "id": "2025-fbs-401752892",
    "week": 10,
    "date": "2025-11-01",
    "day": "Saturday",
    "kickoff": "11:30p",
    "home": "Nebraska",
    "away": "USC",
    "homeLogo": null,
    "awayLogo": null,
    "venue": {
      "name": "Memorial Stadium (Lincoln, NE)",
      "lat": 40.8202,
      "lng": -96.7055
    },
    "division": "fbs"
  },
  {
    "id": "2025-fbs-401752757",
    "week": 10,
    "date": "2025-11-01",
    "day": "Saturday",
    "kickoff": "11:30p",
    "home": "Tennessee",
    "away": "Oklahoma",
    "homeLogo": null,
    "awayLogo": null,
    "venue": {
      "name": "Neyland Stadium",
      "lat": 35.9551,
      "lng": -83.9252
    },
    "division": "fbs"
  },
  {
    "id": "2025-fbs-401756942",
    "week": 10,
    "date": "2025-11-02",
    "day": "Sunday",
    "kickoff": "2:15a",
    "home": "Utah",
    "away": "Cincinnati",
    "homeLogo": "https://a.espncdn.com/i/teamlogos/ncaa/500/254.png",
    "awayLogo": null,
    "venue": {
      "name": "Rice-Eccles Stadium",
      "lat": 40.7597,
      "lng": -111.8478
    },
    "division": "fbs"
  },
  {
    "id": "2025-fbs-401760403",
    "week": 10,
    "date": "2025-11-02",
    "day": "Sunday",
    "kickoff": "2:30a",
    "home": "San José State",
    "away": "Hawai'i",
    "homeLogo": "https://a.espncdn.com/i/teamlogos/ncaa/500/23.png",
    "awayLogo": "https://a.espncdn.com/i/teamlogos/ncaa/500/62.png",
    "venue": {
      "name": "CEFCU Stadium",
      "lat": 37.3197,
      "lng": -121.8684
    },
    "division": "fbs"
  }
]