[
  {
    "id": "nfl-401772939",
    "week": 5,
    "date": "2025-10-03",
    "day": "Thursday",
    "kickoff": "5:15p",
    "home": "Los Angeles Rams",
    "away": "San Francisco 49ers",
    "homeLogo": "https://a.espncdn.com/i/teamlogos/nfl/500/scoreboard/lar.png",
    "awayLogo": "https://a.espncdn.com/i/teamlogos/nfl/500/scoreboard/sf.png",
    "venue": {
      "name": "SoFi Stadium",
      "lat": 33.9535,
      "lng": -118.3392
    },
    "division": "nfl"
  },
  {
    "id": "nfl-401772633",
    "week": 5,
    "date": "2025-10-05",
    "day": "Sunday",
    "kickoff": "6:30a",
    "home": "Cleveland Browns",
    "away": "Minnesota Vikings",
    "homeLogo": "https://a.espncdn.com/i/teamlogos/nfl/500/scoreboard/cle.png",
    "awayLogo": "https://a.espncdn.com/i/teamlogos/nfl/500/scoreboard/min.png",
    "venue": {
      "name": "Tottenham Hotspur Stadium",
      "lat": 51.6043,
      "lng": -0.0665
    },
    "division": "nfl"
  },
  {
    "id": "nfl-401772851",
    "week": 5,
    "date": "2025-10-05",
    "day": "Sunday",
    "kickoff": "10a",
    "home": "Indianapolis Colts",
    "away": "Las Vegas Raiders",
    "homeLogo": "https://a.espncdn.com/i/teamlogos/nfl/500/scoreboard/ind.png",
    "awayLogo": "https://a.espncdn.com/i/teamlogos/nfl/500/scoreboard/lv.png",
    "venue": {
      "name": "Lucas Oil Stadium",
      "lat": 39.7601,
      "lng": -86.1639
    },
    "division": "nfl"
  },
  {
    "id": "nfl-401772744",
    "week": 5,
    "date": "2025-10-05",
    "day": "Sunday",
    "kickoff": "10a",
    "home": "New Orleans Saints",
    "away": "New York Giants",
    "homeLogo": "https://a.espncdn.com/i/teamlogos/nfl/500/scoreboard/no.png",
    "awayLogo": "https://a.espncdn.com/i/teamlogos/nfl/500/scoreboard/nyg.png",
    "venue": {
      "name": "Caesars Superdome",
      "lat": 29.9511,
      "lng": -90.0812
    },
    "division": "nfl"
  },
  {
    "id": "nfl-401772850",
    "week": 5,
    "date": "2025-10-05",
    "day": "Sunday",
    "kickoff": "10a",
    "home": "New York Jets",
    "away": "Dallas Cowboys",
    "homeLogo": "https://a.espncdn.com/i/teamlogos/nfl/500/scoreboard/nyj.png",
    "awayLogo": "https://a.espncdn.com/i/teamlogos/nfl/500/scoreboard/dal.png",
    "venue": {
      "name": "MetLife Stadium",
      "lat": 40.8128,
      "lng": -74.0742
    },
    "division": "nfl"
  },
  {
    "id": "nfl-401772745",
    "week": 5,
    "date": "2025-10-05",
    "day": "Sunday",
    "kickoff": "10a",
    "home": "Philadelphia Eagles",
    "away": "Denver Broncos",
    "homeLogo": "https://a.espncdn.com/i/teamlogos/nfl/500/scoreboard/phi.png",
    "awayLogo": "https://a.espncdn.com/i/teamlogos/nfl/500/scoreboard/den.png",
    "venue": {
      "name": "Lincoln Financial Field",
      "lat": 39.9008,
      "lng": -75.1675
    },
    "division": "nfl"
  },
  {
    "id": "nfl-401772852",
    "week": 5,
    "date": "2025-10-05",
    "day": "Sunday",
    "kickoff": "10a",
    "home": "Carolina Panthers",
    "away": "Miami Dolphins",
    "homeLogo": "https://a.espncdn.com/i/teamlogos/nfl/500/scoreboard/car.png",
    "awayLogo": "https://a.espncdn.com/i/teamlogos/nfl/500/scoreboard/mia.png",
    "venue": {
      "name": "Bank of America Stadium",
      "lat": 35.2258,
      "lng": -80.8528
    },
    "division": "nfl"
  },
  {
    "id": "nfl-401772743",
    "week": 5,
    "date": "2025-10-05",
    "day": "Sunday",
    "kickoff": "10a",
    "home": "Baltimore Ravens",
    "away": "Houston Texans",
    "homeLogo": "https://a.espncdn.com/i/teamlogos/nfl/500/scoreboard/bal.png",
    "awayLogo": "https://a.espncdn.com/i/teamlogos/nfl/500/scoreboard/hou.png",
    "venue": {
      "name": "M&T Bank Stadium",
      "lat": 39.278,
      "lng": -76.6227
    },
    "division": "nfl"
  },
  {
    "id": "nfl-401772747",
    "week": 5,
    "date": "2025-10-05",
    "day": "Sunday",
    "kickoff": "1:05p",
    "home": "Arizona Cardinals",
    "away": "Tennessee Titans",
    "homeLogo": "https://a.espncdn.com/i/teamlogos/nfl/500/scoreboard/ari.png",
    "awayLogo": "https://a.espncdn.com/i/teamlogos/nfl/500/scoreboard/ten.png",
    "venue": {
      "name": "State Farm Stadium",
      "lat": 33.5276,
      "lng": -112.2626
    },
    "division": "nfl"
  },
  {
    "id": "nfl-401772746",
    "week": 5,
    "date": "2025-10-05",
    "day": "Sunday",
    "kickoff": "1:05p",
    "home": "Seattle Seahawks",
    "away": "Tampa Bay Buccaneers",
    "homeLogo": "https://a.espncdn.com/i/teamlogos/nfl/500/scoreboard/sea.png",
    "awayLogo": "https://a.espncdn.com/i/teamlogos/nfl/500/scoreboard/tb.png",
    "venue": {
      "name": "Lumen Field",
      "lat": 47.5952,
      "lng": -122.3316
    },
    "division": "nfl"
  },
  {
    "id": "nfl-401772854",
    "week": 5,
    "date": "2025-10-05",
    "day": "Sunday",
    "kickoff": "1:25p",
    "home": "Cincinnati Bengals",
    "away": "Detroit Lions",
    "homeLogo": "https://a.espncdn.com/i/teamlogos/nfl/500/scoreboard/cin.png",
    "awayLogo": "https://a.espncdn.com/i/teamlogos/nfl/500/scoreboard/det.png",
    "venue": {
      "name": "Paycor Stadium",
      "lat": 39.0954,
      "lng": -84.516
    },
    "division": "nfl"
  },
  {
    "id": "nfl-401772853",
    "week": 5,
    "date": "2025-10-05",
    "day": "Sunday",
    "kickoff": "1:25p",
    "home": "Los Angeles Chargers",
    "away": "Washington Commanders",
    "homeLogo": "https://a.espncdn.com/i/teamlogos/nfl/500/scoreboard/lac.png",
    "awayLogo": "https://a.espncdn.com/i/teamlogos/nfl/500/scoreboard/wsh.png",
    "venue": {
      "name": "SoFi Stadium",
      "lat": 33.9535,
      "lng": -118.3392
    },
    "division": "nfl"
  },
  {
    "id": "nfl-401772922",
    "week": 5,
    "date": "2025-10-06",
    "day": "Sunday",
    "kickoff": "5:20p",
    "home": "Buffalo Bills",
    "away": "New England Patriots",
    "homeLogo": "https://a.espncdn.com/i/teamlogos/nfl/500/scoreboard/buf.png",
    "awayLogo": "https://a.espncdn.com/i/teamlogos/nfl/500/scoreboard/ne.png",
    "venue": {
      "name": "Highmark Stadium",
      "lat": 42.7738,
      "lng": -78.787
    },
    "division": "nfl"
  },
  {
    "id": "nfl-401772814",
    "week": 5,
    "date": "2025-10-07",
    "day": "Monday",
    "kickoff": "5:15p",
    "home": "Jacksonville Jaguars",
    "away": "Kansas City Chiefs",
    "homeLogo": "https://a.espncdn.com/i/teamlogos/nfl/500/scoreboard/jax.png",
    "awayLogo": "https://a.espncdn.com/i/teamlogos/nfl/500/scoreboard/kc.png",
    "venue": {
      "name": "EverBank Stadium",
      "lat": 30.3239,
      "lng": -81.6373
    },
    "division": "nfl"
  }
]