[
  {
    "id": "nfl-401772943",
    "week": 9,
    "date": "2025-10-31",
    "day": "Thursday",
    "kickoff": "5:15p",
    "home": "Miami Dolphins",
    "away": "Baltimore Ravens",
    "homeLogo": "https://a.espncdn.com/i/teamlogos/nfl/500/scoreboard/mia.png",
    "awayLogo": "https://a.espncdn.com/i/teamlogos/nfl/500/scoreboard/bal.png",
    "venue": {
      "name": "Hard Rock Stadium",
      "lat": 25.958,
      "lng": -80.2389
    },
    "missingVenue": false,
    "division": "nfl"
  },
  {
    "id": "nfl-401772765",
    "week": 9,
    "date": "2025-11-02",
    "day": "Sunday",
    "kickoff": "10a",
    "home": "Cincinnati Bengals",
    "away": "Chicago Bears",
    "homeLogo": "https://a.espncdn.com/i/teamlogos/nfl/500/scoreboard/cin.png",
    "awayLogo": "https://a.espncdn.com/i/teamlogos/nfl/500/scoreboard/chi.png",
    "venue": {
      "name": "Paycor Stadium",
      "lat": 39.0954,
      "lng": -84.516
    },
    "missingVenue": false,
    "division": "nfl"
  },
  {
    "id": "nfl-401772871",
    "week": 9,
    "date": "2025-11-02",
    "day": "Sunday",
    "kickoff": "10a",
    "home": "Detroit Lions",
    "away": "Minnesota Vikings",
    "homeLogo": "https://a.espncdn.com/i/teamlogos/nfl/500/scoreboard/det.png",
    "awayLogo": "https://a.espncdn.com/i/teamlogos/nfl/500/scoreboard/min.png",
    "venue": {
      "name": "Ford Field",
      "lat": 42.34,
      "lng": -83.0456
    },
    "missingVenue": false,
    "division": "nfl"
  },
  {
    "id": "nfl-401772872",
    "week": 9,
    "date": "2025-11-02",
    "day": "Sunday",
    "kickoff": "10a",
    "home": "Green Bay Packers",
    "away": "Carolina Panthers",
    "homeLogo": "https://a.espncdn.com/i/teamlogos/nfl/500/scoreboard/gb.png",
    "awayLogo": "https://a.espncdn.com/i/teamlogos/nfl/500/scoreboard/car.png",
    "venue": {
      "name": "Lambeau Field",
      "lat": 44.5013,
      "lng": -88.0622
    },
    "missingVenue": false,
    "division": "nfl"
  },
  {
    "id": "nfl-401772764",
    "week": 9,
    "date": "2025-11-02",
    "day": "Sunday",
    "kickoff": "10a",
    "home": "Tennessee Titans",
    "away": "Los Angeles Chargers",
    "homeLogo": "https://a.espncdn.com/i/teamlogos/nfl/500/scoreboard/ten.png",
    "awayLogo": "https://a.espncdn.com/i/teamlogos/nfl/500/scoreboard/lac.png",
    "venue": {
      "name": "Nissan Stadium",
      "lat": 36.1665,
      "lng": -86.7713
    },
    "missingVenue": false,
    "division": "nfl"
  },
  {
    "id": "nfl-401772763",
    "week": 9,
    "date": "2025-11-02",
    "day": "Sunday",
    "kickoff": "10a",
    "home": "New England Patriots",
    "away": "Atlanta Falcons",
    "homeLogo": "https://a.espncdn.com/i/teamlogos/nfl/500/scoreboard/ne.png",
    "awayLogo": "https://a.espncdn.com/i/teamlogos/nfl/500/scoreboard/atl.png",
    "venue": {
      "name": "Gillette Stadium",
      "lat": 42.0909,
      "lng": -71.2643
    },
    "missingVenue": false,
    "division": "nfl"
  },
  {
    "id": "nfl-401772767",
    "week": 9,
    "date": "2025-11-02",
    "day": "Sunday",
    "kickoff": "10a",
    "home": "New York Giants",
    "away": "San Francisco 49ers",
    "homeLogo": "https://a.espncdn.com/i/teamlogos/nfl/500/scoreboard/nyg.png",
    "awayLogo": "https://a.espncdn.com/i/teamlogos/nfl/500/scoreboard/sf.png",
    "venue": {
      "name": "MetLife Stadium",
      "lat": 40.8128,
      "lng": -74.0742
    },
    "missingVenue": false,
    "division": "nfl"
  },
  {
    "id": "nfl-401772766",
    "week": 9,
    "date": "2025-11-02",
    "day": "Sunday",
    "kickoff": "10a",
    "home": "Pittsburgh Steelers",
    "away": "Indianapolis Colts",
    "homeLogo": "https://a.espncdn.com/i/teamlogos/nfl/500/scoreboard/pit.png",
    "awayLogo": "https://a.espncdn.com/i/teamlogos/nfl/500/scoreboard/ind.png",
    "venue": {
      "name": "Acrisure Stadium",
      "lat": 40.4468,
      "lng": -80.0158
    },
    "missingVenue": false,
    "division": "nfl"
  },
  {
    "id": "nfl-401772870",
    "week": 9,
    "date": "2025-11-02",
    "day": "Sunday",
    "kickoff": "10a",
    "home": "Houston Texans",
    "away": "Denver Broncos",
    "homeLogo": "https://a.espncdn.com/i/teamlogos/nfl/500/scoreboard/hou.png",
    "awayLogo": "https://a.espncdn.com/i/teamlogos/nfl/500/scoreboard/den.png",
    "venue": {
      "name": "NRG Stadium",
      "lat": 29.6847,
      "lng": -95.4107
    },
    "missingVenue": false,
    "division": "nfl"
  },
  {
    "id": "nfl-401772873",
    "week": 9,
    "date": "2025-11-02",
    "day": "Sunday",
    "kickoff": "1:05p",
    "home": "Las Vegas Raiders",
    "away": "Jacksonville Jaguars",
    "homeLogo": "https://a.espncdn.com/i/teamlogos/nfl/500/scoreboard/lv.png",
    "awayLogo": "https://a.espncdn.com/i/teamlogos/nfl/500/scoreboard/jax.png",
    "venue": {
      "name": "Allegiant Stadium",
      "lat": 36.0909,
      "lng": -115.1833
    },
    "missingVenue": false,
    "division": "nfl"
  },
  {
    "id": "nfl-401772874",
    "week": 9,
    "date": "2025-11-02",
    "day": "Sunday",
    "kickoff": "1:05p",
    "home": "Los Angeles Rams",
    "away": "New Orleans Saints",
    "homeLogo": "https://a.espncdn.com/i/teamlogos/nfl/500/scoreboard/lar.png",
    "awayLogo": "https://a.espncdn.com/i/teamlogos/nfl/500/scoreboard/no.png",
    "venue": {
      "name": "SoFi Stadium",
      "lat": 33.9535,
      "lng": -118.3392
    },
    "missingVenue": false,
    "division": "nfl"
  },
  {
    "id": "nfl-401772768",
    "week": 9,
    "date": "2025-11-02",
    "day": "Sunday",
    "kickoff": "1:25p",
    "home": "Buffalo Bills",
    "away": "Kansas City Chiefs",
    "homeLogo": "https://a.espncdn.com/i/teamlogos/nfl/500/scoreboard/buf.png",
    "awayLogo": "https://a.espncdn.com/i/teamlogos/nfl/500/scoreboard/kc.png",
    "venue": {
      "name": "Highmark Stadium (Old)",
      "lat": 42.7738,
      "lng": -78.787
    },
    "missingVenue": false,
    "division": "nfl"
  },
  {
    "id": "nfl-401772926",
    "week": 9,
    "date": "2025-11-03",
    "day": "Sunday",
    "kickoff": "5:20p",
    "home": "Washington Commanders",
    "away": "Seattle Seahawks",
    "homeLogo": "https://a.espncdn.com/i/teamlogos/nfl/500/scoreboard/wsh.png",
    "awayLogo": "https://a.espncdn.com/i/teamlogos/nfl/500/scoreboard/sea.png",
    "venue": {
      "name": "Northwest Stadium",
      "lat": 38.9076,
      "lng": -76.8645
    },
    "missingVenue": false,
    "division": "nfl"
  },
  {
    "id": "nfl-401772818",
    "week": 9,
    "date": "2025-11-04",
    "day": "Monday",
    "kickoff": "5:15p",
    "home": "Dallas Cowboys",
    "away": "Arizona Cardinals",
    "homeLogo": "https://a.espncdn.com/i/teamlogos/nfl/500/scoreboard/dal.png",
    "awayLogo": "https://a.espncdn.com/i/teamlogos/nfl/500/scoreboard/ari.png",
    "venue": {
      "name": "AT&T Stadium",
      "lat": 32.7473,
      "lng": -97.0945
    },
    "missingVenue": false,
    "division": "nfl"
  }
]