[
  {
    "id": "nfl-401772944",
    "week": 10,
    "date": "2025-11-07",
    "day": "Thursday",
    "kickoff": "5:15p",
    "home": "Denver Broncos",
    "away": "Las Vegas Raiders",
    "homeLogo": "https://a.espncdn.com/i/teamlogos/nfl/500/scoreboard/den.png",
    "awayLogo": "https://a.espncdn.com/i/teamlogos/nfl/500/scoreboard/lv.png",
    "venue": {
      "name": "Empower Field at Mile High",
      "lat": 39.7439,
      "lng": -105.0201
    },
    "missingVenue": false,
    "division": "nfl"
  },
  {
    "id": "nfl-401772636",
    "week": 10,
    "date": "2025-11-09",
    "day": "Sunday",
    "kickoff": "6:30a",
    "home": "Indianapolis Colts",
    "away": "Atlanta Falcons",
    "homeLogo": "https://a.espncdn.com/i/teamlogos/nfl/500/scoreboard/ind.png",
    "awayLogo": "https://a.espncdn.com/i/teamlogos/nfl/500/scoreboard/atl.png",
    "venue": {
      "name": "Olympic Stadium Berlin",
      "lat": 52.5145,
      "lng": 13.2395
    },
    "missingVenue": false,
    "division": "nfl"
  },
  {
    "id": "nfl-401772875",
    "week": 10,
    "date": "2025-11-09",
    "day": "Sunday",
    "kickoff": "10a",
    "home": "Chicago Bears",
    "away": "New York Giants",
    "homeLogo": "https://a.espncdn.com/i/teamlogos/nfl/500/scoreboard/chi.png",
    "awayLogo": "https://a.espncdn.com/i/teamlogos/nfl/500/scoreboard/nyg.png",
    "venue": {
      "name": "Soldier Field",
      "lat": 41.8623,
      "lng": -87.6167
    },
    "missingVenue": false,
    "division": "nfl"
  },
  {
    "id": "nfl-401772771",
    "week": 10,
    "date": "2025-11-09",
    "day": "Sunday",
    "kickoff": "10a",
    "home": "Miami Dolphins",
    "away": "Buffalo Bills",
    "homeLogo": "https://a.espncdn.com/i/teamlogos/nfl/500/scoreboard/mia.png",
    "awayLogo": "https://a.espncdn.com/i/teamlogos/nfl/500/scoreboard/buf.png",
    "venue": {
      "name": "Hard Rock Stadium",
      "lat": 25.958,
      "lng": -80.2389
    },
    "missingVenue": false,
    "division": "nfl"
  },
  {
    "id": "nfl-401772876",
    "week": 10,
    "date": "2025-11-09",
    "day": "Sunday",
    "kickoff": "10a",
    "home": "Minnesota Vikings",
    "away": "Baltimore Ravens",
    "homeLogo": "https://a.espncdn.com/i/teamlogos/nfl/500/scoreboard/min.png",
    "awayLogo": "https://a.espncdn.com/i/teamlogos/nfl/500/scoreboard/bal.png",
    "venue": {
      "name": "U.S. Bank Stadium",
      "lat": 44.9738,
      "lng": -93.2578
    },
    "missingVenue": false,
    "division": "nfl"
  },
  {
    "id": "nfl-401772769",
    "week": 10,
    "date": "2025-11-09",
    "day": "Sunday",
    "kickoff": "10a",
    "home": "New York Jets",
    "away": "Cleveland Browns",
    "homeLogo": "https://a.espncdn.com/i/teamlogos/nfl/500/scoreboard/nyj.png",
    "awayLogo": "https://a.espncdn.com/i/teamlogos/nfl/500/scoreboard/cle.png",
    "venue": {
      "name": "MetLife Stadium",
      "lat": 40.8128,
      "lng": -74.0742
    },
    "missingVenue": false,
    "division": "nfl"
  },
  {
    "id": "nfl-401772772",
    "week": 10,
    "date": "2025-11-09",
    "day": "Sunday",
    "kickoff": "10a",
    "home": "Tampa Bay Buccaneers",
    "away": "New England Patriots",
    "homeLogo": "https://a.espncdn.com/i/teamlogos/nfl/500/scoreboard/tb.png",
    "awayLogo": "https://a.espncdn.com/i/teamlogos/nfl/500/scoreboard/ne.png",
    "venue": {
      "name": "Raymond James Stadium",
      "lat": 27.9759,
      "lng": -82.5033
    },
    "missingVenue": false,
    "division": "nfl"
  },
  {
    "id": "nfl-401772877",
    "week": 10,
    "date": "2025-11-09",
    "day": "Sunday",
    "kickoff": "10a",
    "home": "Carolina Panthers",
    "away": "New Orleans Saints",
    "homeLogo": "https://a.espncdn.com/i/teamlogos/nfl/500/scoreboard/car.png",
    "awayLogo": "https://a.espncdn.com/i/teamlogos/nfl/500/scoreboard/no.png",
    "venue": {
      "name": "Bank of America Stadium",
      "lat": 35.2258,
      "lng": -80.8528
    },
    "missingVenue": false,
    "division": "nfl"
  },
  {
    "id": "nfl-401772770",
    "week": 10,
    "date": "2025-11-09",
    "day": "Sunday",
    "kickoff": "10a",
    "home": "Houston Texans",
    "away": "Jacksonville Jaguars",
    "homeLogo": "https://a.espncdn.com/i/teamlogos/nfl/500/scoreboard/hou.png",
    "awayLogo": "https://a.espncdn.com/i/teamlogos/nfl/500/scoreboard/jax.png",
    "venue": {
      "name": "NRG Stadium",
      "lat": 29.6847,
      "lng": -95.4107
    },
    "missingVenue": false,
    "division": "nfl"
  },
  {
    "id": "nfl-401772773",
    "week": 10,
    "date": "2025-11-09",
    "day": "Sunday",
    "kickoff": "1:05p",
    "home": "Seattle Seahawks",
    "away": "Arizona Cardinals",
    "homeLogo": "https://a.espncdn.com/i/teamlogos/nfl/500/scoreboard/sea.png",
    "awayLogo": "https://a.espncdn.com/i/teamlogos/nfl/500/scoreboard/ari.png",
    "venue": {
      "name": "Lumen Field",
      "lat": 47.5952,
      "lng": -122.3316
    },
    "missingVenue": false,
    "division": "nfl"
  },
  {
    "id": "nfl-401772879",
    "week": 10,
    "date": "2025-11-09",
    "day": "Sunday",
    "kickoff": "1:25p",
    "home": "San Francisco 49ers",
    "away": "Los Angeles Rams",
    "homeLogo": "https://a.espncdn.com/i/teamlogos/nfl/500/scoreboard/sf.png",
    "awayLogo": "https://a.espncdn.com/i/teamlogos/nfl/500/scoreboard/lar.png",
    "venue": {
      "name": "Levi's Stadium",
      "lat": 37.403,
      "lng": -121.9697
    },
    "missingVenue": false,
    "division": "nfl"
  },
  {
    "id": "nfl-401772878",
    "week": 10,
    "date": "2025-11-09",
    "day": "Sunday",
    "kickoff": "1:25p",
    "home": "Washington Commanders",
    "away": "Detroit Lions",
    "homeLogo": "https://a.espncdn.com/i/teamlogos/nfl/500/scoreboard/wsh.png",
    "awayLogo": "https://a.espncdn.com/i/teamlogos/nfl/500/scoreboard/det.png",
    "venue": {
      "name": "Northwest Stadium",
      "lat": 38.9076,
      "lng": -76.8645
    },
    "missingVenue": false,
    "division": "nfl"
  },
  {
    "id": "nfl-401772927",
    "week": 10,
    "date": "2025-11-10",
    "day": "Sunday",
    "kickoff": "5:20p",
    "home": "Los Angeles Chargers",
    "away": "Pittsburgh Steelers",
    "homeLogo": "https://a.espncdn.com/i/teamlogos/nfl/500/scoreboard/lac.png",
    "awayLogo": "https://a.espncdn.com/i/teamlogos/nfl/500/scoreboard/pit.png",
    "venue": {
      "name": "SoFi Stadium",
      "lat": 33.9535,
      "lng": -118.3392
    },
    "missingVenue": false,
    "division": "nfl"
  },
  {
    "id": "nfl-401772630",
    "week": 10,
    "date": "2025-11-11",
    "day": "Monday",
    "kickoff": "5:15p",
    "home": "Green Bay Packers",
    "away": "Philadelphia Eagles",
    "homeLogo": "https://a.espncdn.com/i/teamlogos/nfl/500/scoreboard/gb.png",
    "awayLogo": "https://a.espncdn.com/i/teamlogos/nfl/500/scoreboard/phi.png",
    "venue": {
      "name": "Lambeau Field",
      "lat": 44.5013,
      "lng": -88.0622
    },
    "missingVenue": false,
    "division": "nfl"
  }
]