{
  "War Memorial Stadium": {
    "lat": 41.3070,
    "lng": -105.5677,
    "city": "Laramie",
    "state": "WY"
  },
  "Falcon Stadium": {
    "lat": 38.9967,
    "lng": -104.8436,
    "city": "Colorado Springs",
    "state": "CO"
  },
  "Autzen Stadium": {
    "lat": 44.0584,
    "lng": -123.0681,
    "city": "Eugene",
    "state": "OR"
  },
  "Spartan Stadium": {
    "lat": 37.3975,
    "lng": -121.8635,
    "city": "San Jose",
    "state": "CA"
  },
  "Canvas Stadium": {
    "lat": 40.5749,
    "lng": -105.0896,
    "city": "Fort Collins",
    "state": "CO"
  },
  "McCulloch Stadium": {
    "lat": 44.9388,
    "lng": -123.0355,
    "city": "Salem",
    "state": "OR"
  },
  "Allegiant Stadium": {
    "lat": 36.0909,
    "lng": -115.1833,
    "city": "Las Vegas",
    "state": "NV"
  }
}
