{
  "War Memorial Stadium": {
    "lat": 41.3070,
    "lng": -105.5677,
    "city": "Laramie",
    "state": "WY"
  },
  "Falcon Stadium": {
    "lat": 38.9967,
    "lng": -104.8436,
    "city": "Colorado Springs",
    "state": "CO"
  },
  "Autzen Stadium": {
    "lat": 44.0584,
    "lng": -123.0681,
    "city": "Eugene",
    "state": "OR"
  },
  "Spartan Stadium": {
    "lat": 37.3975,
    "lng": -121.8635,
    "city": "San Jose",
    "state": "CA"
  },
  "Canvas Stadium": {
    "lat": 40.5749,
    "lng": -105.0896,
    "city": "Fort Collins",
    "state": "CO"
  },
  "McCulloch Stadium": {
    "lat": 44.9388,
    "lng": -123.0355,
    "city": "Salem",
    "state": "OR"
  },
  "Allegiant Stadium": {
    "lat": 36.0909,
    "lng": -115.1833,
    "city": "Las Vegas",
    "state": "NV"
  },
  "Acrisure Stadium": {
    "lat": 40.4468,
    "lng": -80.0158,
    "city": "Pittsburgh",
    "state": "PA"
  },
  "AT&T Stadium": {
    "lat": 32.7473,
    "lng": -97.0945,
    "city": "Arlington",
    "state": "TX"
  },
  "Bank of America Stadium": {
    "lat": 35.2258,
    "lng": -80.8528,
    "city": "Charlotte",
    "state": "NC"
  },
  "Caesars Superdome": {
    "lat": 29.9511,
    "lng": -90.0812,
    "city": "New Orleans",
    "state": "LA"
  },
  "Empower Field at Mile High": {
    "lat": 39.7439,
    "lng": -105.0201,
    "city": "Denver",
    "state": "CO"
  },
  "EverBank Stadium": {
    "lat": 30.3239,
    "lng": -81.6373,
    "city": "Jacksonville",
    "state": "FL"
  },
  "Ford Field": {
    "lat": 42.3400,
    "lng": -83.0456,
    "city": "Detroit",
    "state": "MI"
  },
  "GEHA Field at Arrowhead Stadium": {
    "lat": 39.0489,
    "lng": -94.4839,
    "city": "Kansas City",
    "state": "MO"
  },
  "Gillette Stadium": {
    "lat": 42.0909,
    "lng": -71.2643,
    "city": "Foxborough",
    "state": "MA"
  },
  "Hard Rock Stadium": {
    "lat": 25.9580,
    "lng": -80.2389,
    "city": "Miami Gardens",
    "state": "FL"
  },
  "Highmark Stadium": {
    "lat": 42.7738,
    "lng": -78.7870,
    "city": "Orchard Park",
    "state": "NY"
  },
  "Huntington Bank Field": {
    "lat": 41.5061,
    "lng": -81.6995,
    "city": "Cleveland",
    "state": "OH"
  },
  "Lambeau Field": {
    "lat": 44.5013,
    "lng": -88.0622,
    "city": "Green Bay",
    "state": "WI"
  },
  "Levi's Stadium": {
    "lat": 37.4030,
    "lng": -121.9697,
    "city": "Santa Clara",
    "state": "CA"
  },
  "Lincoln Financial Field": {
    "lat": 39.9008,
    "lng": -75.1675,
    "city": "Philadelphia",
    "state": "PA"
  },
  "Lucas Oil Stadium": {
    "lat": 39.7601,
    "lng": -86.1639,
    "city": "Indianapolis",
    "state": "IN"
  },
  "Lumen Field": {
    "lat": 47.5952,
    "lng": -122.3316,
    "city": "Seattle",
    "state": "WA"
  },
  "Mercedes-Benz Stadium": {
    "lat": 33.7553,
    "lng": -84.4006,
    "city": "Atlanta",
    "state": "GA"
  },
  "MetLife Stadium": {
    "lat": 40.8128,
    "lng": -74.0742,
    "city": "East Rutherford",
    "state": "NJ"
  },
  "M&T Bank Stadium": {
    "lat": 39.2780,
    "lng": -76.6227,
    "city": "Baltimore",
    "state": "MD"
  },
  "Nissan Stadium": {
    "lat": 36.1665,
    "lng": -86.7713,
    "city": "Nashville",
    "state": "TN"
  },
  "Northwest Stadium": {
    "lat": 38.9076,
    "lng": -76.8645,
    "city": "Landover",
    "state": "MD"
  },
  "NRG Stadium": {
    "lat": 29.6847,
    "lng": -95.4107,
    "city": "Houston",
    "state": "TX"
  },
  "Paycor Stadium": {
    "lat": 39.0954,
    "lng": -84.5160,
    "city": "Cincinnati",
    "state": "OH"
  },
  "Raymond James Stadium": {
    "lat": 27.9759,
    "lng": -82.5033,
    "city": "Tampa",
    "state": "FL"
  },
  "SoFi Stadium": {
    "lat": 33.9535,
    "lng": -118.3392,
    "city": "Inglewood",
    "state": "CA"
  },
  "Soldier Field": {
    "lat": 41.8623,
    "lng": -87.6167,
    "city": "Chicago",
    "state": "IL"
  },
  "State Farm Stadium": {
    "lat": 33.5276,
    "lng": -112.2626,
    "city": "Glendale",
    "state": "AZ"
  },
  "U.S. Bank Stadium": {
    "lat": 44.9738,
    "lng": -93.2578,
    "city": "Minneapolis",
    "state": "MN"
  },
  "Wembley Stadium": {
    "lat": 51.5560,
    "lng": -0.2795,
    "city": "London",
    "state": "England"
  },
  "Tottenham Hotspur Stadium": {
    "lat": 51.6043,
    "lng": -0.0665,
    "city": "London",
    "state": "England"
  },
  "Olympic Stadium Berlin": {
    "lat": 52.5145,
    "lng": 13.2395,
    "city": "Berlin",
    "state": "Germany"
  },
  "Santiago Bernabéu": {
    "lat": 40.4530,
    "lng": -3.6884,
    "city": "Madrid",
    "state": "Spain"
  },
  "Corinthians Arena": {
    "lat": -23.5451,
    "lng": -46.4739,
    "city": "São Paulo",
    "state": "Brazil"
  },
  "Croke Park": {
    "lat": 53.3606,
    "lng": -6.2512,
    "city": "Dublin",
    "state": "Ireland"
  },
  "Ortmayer Stadium": {
    "lat": 34.1008,
    "lng": -117.7678,
    "city": "La Verne",
    "state": "CA"
  },
  "Maxwell Field": {
    "lat": 45.2099,
    "lng": -123.1987,
    "city": "McMinnville",
    "state": "OR"
  },
  "Hanson Stadium": {
    "lat": 45.5195,
    "lng": -123.1107,
    "city": "Forest Grove",
    "state": "OR"
  },
  "Sparks Stadium": {
    "lat": 47.1872,
    "lng": -122.3005,
    "city": "Puyallup",
    "state": "WA"
  },
  "Baker Stadium": {
    "lat": 47.2605,
    "lng": -122.4825,
    "city": "Tacoma",
    "state": "WA"
  },
  "Stoffer Family Stadium": {
    "lat": 45.3051,
    "lng": -122.9677,
    "city": "Newberg",
    "state": "OR"
  },
  "Griswold Stadium": {
    "lat": 45.4519,
    "lng": -122.6727,
    "city": "Portland",
    "state": "OR"
  },
  "Merritt Field": {
    "lat": 34.0980,
    "lng": -117.7140,
    "city": "Claremont",
    "state": "CA"
  },
  "Pine Bowl": {
    "lat": 47.7523,
    "lng": -117.4202,
    "city": "Spokane",
    "state": "WA"
  }
}
