{
  "War Memorial Stadium": {
    "lat": 41.307,
    "lng": -105.5677,
    "city": "Laramie",
    "state": "WY"
  },
  "Falcon Stadium": {
    "lat": 38.9967,
    "lng": -104.8436,
    "city": "Colorado Springs",
    "state": "CO"
  },
  "Autzen Stadium": {
    "lat": 44.0584,
    "lng": -123.0681,
    "city": "Eugene",
    "state": "OR"
  },
  "Spartan Stadium": {
    "lat": 37.3975,
    "lng": -121.8635,
    "city": "San Jose",
    "state": "CA"
  },
  "Canvas Stadium": {
    "lat": 40.5749,
    "lng": -105.0896,
    "city": "Fort Collins",
    "state": "CO"
  },
  "McCulloch Stadium": {
    "lat": 44.9388,
    "lng": -123.0355,
    "city": "Salem",
    "state": "OR"
  },
  "Alex G. Spanos Stadium": {
    "lat": 35.3005,
    "lng": -120.6587,
    "city": "San Luis Obispo",
    "state": "CA"
  },
  "Torero Stadium": {
    "lat": 32.7741,
    "lng": -117.1833,
    "city": "San Diego",
    "state": "CA"
  },
  "Homer Bryce Stadium": {
    "lat": 31.6204,
    "lng": -94.6486,
    "city": "Nacogdoches",
    "state": "TX"
  },
  "Hornet Stadium": {
    "lat": 38.5598,
    "lng": -121.4242,
    "city": "Sacramento",
    "state": "CA"
  },
  "Washington-Grizzly Stadium": {
    "lat": 46.8601,
    "lng": -113.9845,
    "city": "Missoula",
    "state": "MT"
  },
  "Holt Arena": {
    "lat": 42.8723,
    "lng": -112.4341,
    "city": "Pocatello",
    "state": "ID"
  },
  "Walkup Skydome": {
    "lat": 35.1803,
    "lng": -111.6544,
    "city": "Flagstaff",
    "state": "AZ"
  },
  "Reser Stadium": {
    "lat": 44.559,
    "lng": -123.2814,
    "city": "Corvallis",
    "state": "OR"
  },
  "Albertsons Stadium": {
    "lat": 43.6029,
    "lng": -116.1958,
    "city": "Boise",
    "state": "ID"
  },
  "Kelly/Shorts Stadium": {
    "lat": 43.5779,
    "lng": -84.7738,
    "city": "Mount Pleasant",
    "state": "MI"
  },
  "Fargodome": {
    "lat": 46.9028,
    "lng": -96.8013,
    "city": "Fargo",
    "state": "ND"
  },
  "Gesa Field": {
    "lat": 46.7318,
    "lng": -117.1601,
    "city": "Pullman",
    "state": "WA"
  },
  "Bobcat Stadium (TX)": {
    "lat": 29.8911,
    "lng": -97.9256,
    "city": "San Marcos",
    "state": "TX"
  },
  "Memorial Stadium": {
    "lat": 38.9628,
    "lng": -95.2464,
    "city": "Lawrence",
    "state": "KS"
  },
  "Allegiant Stadium": {
    "lat": 36.0909,
    "lng": -115.1833,
    "city": "Las Vegas",
    "state": "NV"
  },
  "Acrisure Stadium": {
    "lat": 40.4468,
    "lng": -80.0158,
    "city": "Pittsburgh",
    "state": "PA"
  },
  "AT&T Stadium": {
    "lat": 32.7473,
    "lng": -97.0945,
    "city": "Arlington",
    "state": "TX"
  },
  "Bank of America Stadium": {
    "lat": 35.2258,
    "lng": -80.8528,
    "city": "Charlotte",
    "state": "NC"
  },
  "Caesars Superdome": {
    "lat": 29.9511,
    "lng": -90.0812,
    "city": "New Orleans",
    "state": "LA"
  },
  "Empower Field at Mile High": {
    "lat": 39.7439,
    "lng": -105.0201,
    "city": "Denver",
    "state": "CO"
  },
  "EverBank Stadium": {
    "lat": 30.3239,
    "lng": -81.6373,
    "city": "Jacksonville",
    "state": "FL"
  },
  "Ford Field": {
    "lat": 42.34,
    "lng": -83.0456,
    "city": "Detroit",
    "state": "MI"
  },
  "GEHA Field at Arrowhead Stadium": {
    "lat": 39.0489,
    "lng": -94.4839,
    "city": "Kansas City",
    "state": "MO"
  },
  "Gillette Stadium": {
    "lat": 42.0909,
    "lng": -71.2643,
    "city": "Foxborough",
    "state": "MA"
  },
  "Hard Rock Stadium": {
    "lat": 25.958,
    "lng": -80.2389,
    "city": "Miami Gardens",
    "state": "FL"
  },
  "Highmark Stadium": {
    "lat": 42.7738,
    "lng": -78.787,
    "city": "Orchard Park",
    "state": "NY"
  },
  "Highmark Stadium (Old)": {
    "lat": 42.7738,
    "lng": -78.787,
    "city": "Orchard Park",
    "state": "NY"
  },
  "Huntington Bank Field": {
    "lat": 41.5061,
    "lng": -81.6995,
    "city": "Cleveland",
    "state": "OH"
  },
  "Lambeau Field": {
    "lat": 44.5013,
    "lng": -88.0622,
    "city": "Green Bay",
    "state": "WI"
  },
  "Levi's Stadium": {
    "lat": 37.403,
    "lng": -121.9697,
    "city": "Santa Clara",
    "state": "CA"
  },
  "Lincoln Financial Field": {
    "lat": 39.9008,
    "lng": -75.1675,
    "city": "Philadelphia",
    "state": "PA"
  },
  "Lucas Oil Stadium": {
    "lat": 39.7601,
    "lng": -86.1639,
    "city": "Indianapolis",
    "state": "IN"
  },
  "Lumen Field": {
    "lat": 47.5952,
    "lng": -122.3316,
    "city": "Seattle",
    "state": "WA"
  },
  "Mercedes-Benz Stadium": {
    "lat": 33.7553,
    "lng": -84.4006,
    "city": "Atlanta",
    "state": "GA"
  },
  "MetLife Stadium": {
    "lat": 40.8128,
    "lng": -74.0742,
    "city": "East Rutherford",
    "state": "NJ"
  },
  "M&T Bank Stadium": {
    "lat": 39.278,
    "lng": -76.6227,
    "city": "Baltimore",
    "state": "MD"
  },
  "Nissan Stadium": {
    "lat": 36.1665,
    "lng": -86.7713,
    "city": "Nashville",
    "state": "TN"
  },
  "Northwest Stadium": {
    "lat": 38.9076,
    "lng": -76.8645,
    "city": "Landover",
    "state": "MD"
  },
  "NRG Stadium": {
    "lat": 29.6847,
    "lng": -95.4107,
    "city": "Houston",
    "state": "TX"
  },
  "Paycor Stadium": {
    "lat": 39.0954,
    "lng": -84.516,
    "city": "Cincinnati",
    "state": "OH"
  },
  "Raymond James Stadium": {
    "lat": 27.9759,
    "lng": -82.5033,
    "city": "Tampa",
    "state": "FL"
  },
  "SoFi Stadium": {
    "lat": 33.9535,
    "lng": -118.3392,
    "city": "Inglewood",
    "state": "CA"
  },
  "Soldier Field": {
    "lat": 41.8623,
    "lng": -87.6167,
    "city": "Chicago",
    "state": "IL"
  },
  "State Farm Stadium": {
    "lat": 33.5276,
    "lng": -112.2626,
    "city": "Glendale",
    "state": "AZ"
  },
  "U.S. Bank Stadium": {
    "lat": 44.9738,
    "lng": -93.2578,
    "city": "Minneapolis",
    "state": "MN"
  },
  "Wembley Stadium": {
    "lat": 51.556,
    "lng": -0.2795,
    "city": "London",
    "state": "England"
  },
  "Tottenham Hotspur Stadium": {
    "lat": 51.6043,
    "lng": -0.0665,
    "city": "London",
    "state": "England"
  },
  "FC Bayern Munich Stadium": {
    "lat": 48.2188,
    "lng": 11.6247,
    "city": "Munich",
    "state": "Germany"
  },
  "Olympic Stadium Berlin": {
    "lat": 52.5145,
    "lng": 13.2395,
    "city": "Berlin",
    "state": "Germany"
  },
  "Stade de France": {
    "lat": 48.9245,
    "lng": 2.3601,
    "city": "Saint-Denis",
    "state": "France"
  },
  "Santiago Bernabéu": {
    "lat": 40.453,
    "lng": -3.6884,
    "city": "Madrid",
    "state": "Spain"
  },
  "Estadio Banorte": {
    "lat": 25.666,
    "lng": -100.244,
    "city": "Guadalupe",
    "state": "Mexico"
  },
  "Corinthians Arena": {
    "lat": -23.5451,
    "lng": -46.4739,
    "city": "São Paulo",
    "state": "Brazil"
  },
  "Maracanã Stadium": {
    "lat": -22.9122,
    "lng": -43.2302,
    "city": "Rio de Janeiro",
    "state": "Brazil"
  },
  "Melbourne Cricket Ground": {
    "lat": -37.8199,
    "lng": 144.9834,
    "city": "Melbourne",
    "state": "Australia"
  },
  "Croke Park": {
    "lat": 53.3606,
    "lng": -6.2512,
    "city": "Dublin",
    "state": "Ireland"
  },
  "Ortmayer Stadium": {
    "lat": 34.1008,
    "lng": -117.7678,
    "city": "La Verne",
    "state": "CA"
  },
  "Maxwell Field": {
    "lat": 45.2099,
    "lng": -123.1987,
    "city": "McMinnville",
    "state": "OR"
  },
  "Hanson Stadium": {
    "lat": 45.5195,
    "lng": -123.1107,
    "city": "Forest Grove",
    "state": "OR"
  },
  "Sparks Stadium": {
    "lat": 47.1872,
    "lng": -122.3005,
    "city": "Puyallup",
    "state": "WA"
  },
  "Baker Stadium": {
    "lat": 47.2605,
    "lng": -122.4825,
    "city": "Tacoma",
    "state": "WA"
  },
  "Stoffer Family Stadium": {
    "lat": 45.3051,
    "lng": -122.9677,
    "city": "Newberg",
    "state": "OR"
  },
  "Griswold Stadium": {
    "lat": 45.4519,
    "lng": -122.6727,
    "city": "Portland",
    "state": "OR"
  },
  "Merritt Field": {
    "lat": 34.098,
    "lng": -117.714,
    "city": "Claremont",
    "state": "CA"
  },
  "Pine Bowl": {
    "lat": 47.7523,
    "lng": -117.4202,
    "city": "Spokane",
    "state": "WA"
  },
  "CEFCU Stadium": {
    "lat": 37.3197,
    "lng": -121.8684,
    "city": "San Jose",
    "state": "CA"
  },
  "InfoCision Stadium": {
    "lat": 41.0726,
    "lng": -81.5084,
    "city": "Akron",
    "state": "OH"
  },
  "DKR-Texas Memorial Stadium": {
    "lat": 30.2839,
    "lng": -97.7325,
    "city": "Austin",
    "state": "TX"
  },
  "Folsom Field": {
    "lat": 40.0096,
    "lng": -105.2644,
    "city": "Boulder",
    "state": "CO"
  },
  "Stanford Stadium": {
    "lat": 37.4344,
    "lng": -122.1614,
    "city": "Palo Alto",
    "state": "CA"
  },
  "Maverik Stadium": {
    "lat": 41.7517,
    "lng": -111.8116,
    "city": "Logan",
    "state": "UT"
  },
  "Snapdragon Stadium": {
    "lat": 32.7831,
    "lng": -117.1194,
    "city": "San Diego",
    "state": "CA"
  },
  "Mackay Stadium": {
    "lat": 39.5468,
    "lng": -119.8175,
    "city": "Reno",
    "state": "NV"
  },
  "Valley Children's Stadium": {
    "lat": 36.8144,
    "lng": -119.758,
    "city": "Fresno",
    "state": "CA"
  },
  "Clarence T.C. Ching Athletics Complex": {
    "lat": 21.294,
    "lng": -157.818,
    "city": "Honolulu",
    "state": "HI"
  },
  "Los Angeles Memorial Coliseum": {
    "lat": 34.0141,
    "lng": -118.2879,
    "city": "Los Angeles",
    "state": "CA"
  },
  "Rynearson Stadium": {
    "lat": 42.2473,
    "lng": -83.6253,
    "city": "Ypsilanti",
    "state": "MI"
  },
  "Sun Bowl": {
    "lat": 31.7688,
    "lng": -106.4992,
    "city": "El Paso",
    "state": "TX"
  },
  "Ohio Stadium": {
    "lat": 40.0018,
    "lng": -83.0197,
    "city": "Columbus",
    "state": "OH"
  },
  "Michigan Stadium": {
    "lat": 42.2658,
    "lng": -83.7487,
    "city": "Ann Arbor",
    "state": "MI"
  },
  "Bryant-Denny Stadium": {
    "lat": 33.208,
    "lng": -87.5502,
    "city": "Tuscaloosa",
    "state": "AL"
  },
  "Beaver Stadium": {
    "lat": 40.8122,
    "lng": -77.8561,
    "city": "University Park",
    "state": "PA"
  },
  "Kyle Field": {
    "lat": 30.61,
    "lng": -96.34,
    "city": "College Station",
    "state": "TX"
  },
  "Neyland Stadium": {
    "lat": 35.9551,
    "lng": -83.9252,
    "city": "Knoxville",
    "state": "TN"
  },
  "Sanford Stadium": {
    "lat": 33.9498,
    "lng": -83.3732,
    "city": "Athens",
    "state": "GA"
  },
  "Tiger Stadium (LA)": {
    "lat": 30.4122,
    "lng": -91.1839,
    "city": "Baton Rouge",
    "state": "LA"
  },
  "Darrell K Royal-Texas Memorial Stadium": {
    "lat": 30.2839,
    "lng": -97.7325,
    "city": "Austin",
    "state": "TX"
  },
  "Rose Bowl": {
    "lat": 34.1611,
    "lng": -118.1676,
    "city": "Pasadena",
    "state": "CA"
  },
  "Camp Randall Stadium": {
    "lat": 43.0703,
    "lng": -89.4124,
    "city": "Madison",
    "state": "WI"
  },
  "Memorial Stadium (Lincoln, NE)": {
    "lat": 40.8202,
    "lng": -96.7055,
    "city": "Lincoln",
    "state": "NE"
  },
  "Memorial Stadium (Clemson, SC)": {
    "lat": 34.6784,
    "lng": -82.8444,
    "city": "Clemson",
    "state": "SC"
  },
  "Ben Hill Griffin Stadium": {
    "lat": 29.65,
    "lng": -82.3486,
    "city": "Gainesville",
    "state": "FL"
  },
  "Doak Campbell Stadium": {
    "lat": 30.4384,
    "lng": -84.3045,
    "city": "Tallahassee",
    "state": "FL"
  },
  "Jordan-Hare Stadium": {
    "lat": 32.6017,
    "lng": -85.4893,
    "city": "Auburn",
    "state": "AL"
  },
  "Notre Dame Stadium": {
    "lat": 41.6997,
    "lng": -86.2347,
    "city": "Notre Dame",
    "state": "IN"
  },
  "Lane Stadium": {
    "lat": 37.2206,
    "lng": -80.4183,
    "city": "Blacksburg",
    "state": "VA"
  },
  "Kinnick Stadium": {
    "lat": 41.6581,
    "lng": -91.5509,
    "city": "Iowa City",
    "state": "IA"
  },
  "Husky Stadium": {
    "lat": 47.6504,
    "lng": -122.3016,
    "city": "Seattle",
    "state": "WA"
  },
  "Razorback Stadium": {
    "lat": 36.0684,
    "lng": -94.1789,
    "city": "Fayetteville",
    "state": "AR"
  },
  "Arizona Stadium": {
    "lat": 32.2287,
    "lng": -110.9489,
    "city": "Tucson",
    "state": "AZ"
  },
  "Rice-Eccles Stadium": {
    "lat": 40.7597,
    "lng": -111.8478,
    "city": "Salt Lake City",
    "state": "UT"
  },
  "LaVell Edwards Stadium": {
    "lat": 40.2578,
    "lng": -111.6563,
    "city": "Provo",
    "state": "UT"
  },
  "Jack Trice Stadium": {
    "lat": 42.014,
    "lng": -93.6356,
    "city": "Ames",
    "state": "IA"
  },
  "Memorial Stadium (Bloomington, IN)": {
    "lat": 39.1793,
    "lng": -86.5232,
    "city": "Bloomington",
    "state": "IN"
  },
  "Memorial Stadium (Champaign, IL)": {
    "lat": 40.0993,
    "lng": -88.2358,
    "city": "Champaign",
    "state": "IL"
  },
  "Kroger Field": {
    "lat": 38.022,
    "lng": -84.5037,
    "city": "Lexington",
    "state": "KY"
  },
  "Kenan Stadium": {
    "lat": 35.9096,
    "lng": -79.0478,
    "city": "Chapel Hill",
    "state": "NC"
  },
  "California Memorial Stadium": {
    "lat": 37.8713,
    "lng": -122.2507,
    "city": "Berkeley",
    "state": "CA"
  },
  "Boone Pickens Stadium": {
    "lat": 36.1286,
    "lng": -97.0651,
    "city": "Stillwater",
    "state": "OK"
  },
  "JMA Wireless Dome": {
    "lat": 43.0361,
    "lng": -76.1364,
    "city": "Syracuse",
    "state": "NY"
  },
  "Alamodome": {
    "lat": 29.4191,
    "lng": -98.4737,
    "city": "San Antonio",
    "state": "TX"
  },
  "Lanny and Sharon Martin Stadium": {
    "lat": 34.361,
    "lng": -103.2067,
    "city": "Portales",
    "state": "NM"
  },
  "Doyt L. Perry Stadium": {
    "lat": 41.375,
    "lng": -83.635,
    "city": "Bowling Green",
    "state": "OH"
  },
  "Huskie Stadium": {
    "lat": 41.9308,
    "lng": -88.7572,
    "city": "DeKalb",
    "state": "IL"
  },
  "DATCU Stadium": {
    "lat": 33.2071,
    "lng": -97.1514,
    "city": "Denton",
    "state": "TX"
  },
  "SECU Stadium": {
    "lat": 38.9941,
    "lng": -76.948,
    "city": "College Park",
    "state": "MD"
  },
  "TDECU Stadium": {
    "lat": 29.7211,
    "lng": -95.3506,
    "city": "Houston",
    "state": "TX"
  },
  "SHI Stadium": {
    "lat": 40.5139,
    "lng": -74.4647,
    "city": "Piscataway",
    "state": "NJ"
  },
  "FirstBank Stadium": {
    "lat": 36.0103,
    "lng": -86.8051,
    "city": "Nashville",
    "state": "TN"
  }
}
