[
  {
    "id": "2025-d3-401774271",
    "week": 11,
    "date": "2025-11-08",
    "day": "Saturday",
    "kickoff": "1p",
    "home": "La Verne",
    "away": "Chapman",
    "homeLogo": null,
    "awayLogo": null,
    "venue": {
      "name": "Ortmayer Stadium",
      "lat": 34.1008,
      "lng": -117.7678
    },
    "division": "d3"
  },
  {
    "id": "2025-d3-401777165",
    "week": 11,
    "date": "2025-11-08",
    "day": "Saturday",
    "kickoff": "1p",
    "home": "Lewis & Clark College",
    "away": "Pacific Lutheran",
    "homeLogo": null,
    "awayLogo": null,
    "venue": {
      "name": "Griswold Stadium",
      "lat": 45.4519,
      "lng": -122.6727
    },
    "division": "d3"
  },
  {
    "id": "2025-d3-401777151",
    "week": 11,
    "date": "2025-11-08",
    "day": "Saturday",
    "kickoff": "1p",
    "home": "Puget Sound",
    "away": "Linfield College",
    "homeLogo": null,
    "awayLogo": null,
    "venue": {
      "name": "Baker Stadium",
      "lat": 47.2605,
      "lng": -122.4825
    },
    "division": "d3"
  },
  {
    "id": "2025-d3-401777174",
    "week": 11,
    "date": "2025-11-08",
    "day": "Saturday",
    "kickoff": "1p",
    "home": "Willamette",
    "away": "Whitworth",
    "homeLogo": null,
    "awayLogo": null,
    "venue": {
      "name": "McCulloch Stadium",
      "lat": 44.9388,
      "lng": -123.0355
    },
    "division": "d3"
  },
  {
    "id": "2025-d3-401777145",
    "week": 11,
    "date": "2025-11-08",
    "day": "Saturday",
    "kickoff": "1:30p",
    "home": "NEWBERG",
    "away": "Pacific (OR)",
    "homeLogo": null,
    "awayLogo": null,
    "venue": {
      "name": "Stoffer Family Stadium",
      "lat": 45.3051,
      "lng": -122.9677
    },
    "division": "d3"
  },
  {
    "id": "2025-d3-401783817",
    "week": 11,
    "date": "2025-11-09",
    "day": "Saturday",
    "kickoff": "7p",
    "home": "Pomona Pitzer",
    "away": "California Lutheran University",
    "homeLogo": null,
    "awayLogo": null,
    "venue": {
      "name": "Merritt Field",
      "lat": 34.098,
      "lng": -117.714
    },
    "division": "d3"
  },
  {
    "id": "2025-d3-401777151",
    "week": 11,
    "date": "2025-11-08",
    "day": "Saturday",
    "kickoff": "1p",
    "home": "Puget Sound",
    "away": "Linfield College",
    "homeLogo": null,
    "awayLogo": null,
    "venue": {
      "name": "Baker Stadium",
      "lat": 47.2605,
      "lng": -122.4825
    },
    "division": "d3"
  },
  {
    "id": "2025-d3-401777165",
    "week": 11,
    "date": "2025-11-08",
    "day": "Saturday",
    "kickoff": "1p",
    "home": "Lewis & Clark College",
    "away": "Pacific Lutheran",
    "homeLogo": null,
    "awayLogo": null,
    "venue": {
      "name": "Griswold Stadium",
      "lat": 45.4519,
      "lng": -122.6727
    },
    "division": "d3"
  },
  {
    "id": "2025-d3-401774271",
    "week": 11,
    "date": "2025-11-08",
    "day": "Saturday",
    "kickoff": "1p",
    "home": "La Verne",
    "away": "Chapman",
    "homeLogo": null,
    "awayLogo": null,
    "venue": {
      "name": "Ortmayer Stadium",
      "lat": 34.1008,
      "lng": -117.7678
    },
    "division": "d3"
  },
  {
    "id": "2025-d3-401777174",
    "week": 11,
    "date": "2025-11-08",
    "day": "Saturday",
    "kickoff": "1p",
    "home": "Willamette",
    "away": "Whitworth",
    "homeLogo": null,
    "awayLogo": null,
    "venue": {
      "name": "McCulloch Stadium",
      "lat": 44.9388,
      "lng": -123.0355
    },
    "division": "d3"
  },
  {
    "id": "2025-d3-401777145",
    "week": 11,
    "date": "2025-11-08",
    "day": "Saturday",
    "kickoff": "1:30p",
    "home": "NEWBERG",
    "away": "Pacific (OR)",
    "homeLogo": null,
    "awayLogo": null,
    "venue": {
      "name": "Stoffer Family Stadium",
      "lat": 45.3051,
      "lng": -122.9677
    },
    "division": "d3"
  },
  {
    "id": "2025-d3-401783817",
    "week": 11,
    "date": "2025-11-09",
    "day": "Saturday",
    "kickoff": "7p",
    "home": "Pomona Pitzer",
    "away": "California Lutheran University",
    "homeLogo": null,
    "awayLogo": null,
    "venue": {
      "name": "Merritt Field",
      "lat": 34.098,
      "lng": -117.714
    },
    "division": "d3"
  },
  {
    "id": "2025-d3-401777151",
    "week": 11,
    "date": "2025-11-08",
    "day": "Saturday",
    "kickoff": "1p",
    "home": "Puget Sound",
    "away": "Linfield College",
    "homeLogo": null,
    "awayLogo": null,
    "venue": {
      "name": "Baker Stadium",
      "lat": 47.2605,
      "lng": -122.4825
    },
    "division": "d3"
  },
  {
    "id": "2025-d3-401777174",
    "week": 11,
    "date": "2025-11-08",
    "day": "Saturday",
    "kickoff": "1p",
    "home": "Willamette",
    "away": "Whitworth",
    "homeLogo": null,
    "awayLogo": null,
    "venue": {
      "name": "McCulloch Stadium",
      "lat": 44.9388,
      "lng": -123.0355
    },
    "division": "d3"
  },
  {
    "id": "2025-d3-401777165",
    "week": 11,
    "date": "2025-11-08",
    "day": "Saturday",
    "kickoff": "1p",
    "home": "Lewis & Clark College",
    "away": "Pacific Lutheran",
    "homeLogo": null,
    "awayLogo": null,
    "venue": {
      "name": "Griswold Stadium",
      "lat": 45.4519,
      "lng": -122.6727
    },
    "division": "d3"
  },
  {
    "id": "2025-d3-401774271",
    "week": 11,
    "date": "2025-11-08",
    "day": "Saturday",
    "kickoff": "1p",
    "home": "La Verne",
    "away": "Chapman",
    "homeLogo": null,
    "awayLogo": null,
    "venue": {
      "name": "Ortmayer Stadium",
      "lat": 34.1008,
      "lng": -117.7678
    },
    "division": "d3"
  },
  {
    "id": "2025-d3-401777145",
    "week": 11,
    "date": "2025-11-08",
    "day": "Saturday",
    "kickoff": "1:30p",
    "home": "NEWBERG",
    "away": "Pacific (OR)",
    "homeLogo": null,
    "awayLogo": null,
    "venue": {
      "name": "Stoffer Family Stadium",
      "lat": 45.3051,
      "lng": -122.9677
    },
    "division": "d3"
  },
  {
    "id": "2025-d3-401783817",
    "week": 11,
    "date": "2025-11-09",
    "day": "Saturday",
    "kickoff": "7p",
    "home": "Pomona Pitzer",
    "away": "California Lutheran University",
    "homeLogo": null,
    "awayLogo": null,
    "venue": {
      "name": "Merritt Field",
      "lat": 34.098,
      "lng": -117.714
    },
    "division": "d3"
  },
  {
    "id": "2025-d3-401777165",
    "week": 11,
    "date": "2025-11-08",
    "day": "Saturday",
    "kickoff": "1p",
    "home": "Lewis & Clark College",
    "away": "Pacific Lutheran",
    "homeLogo": null,
    "awayLogo": null,
    "venue": {
      "name": "Griswold Stadium",
      "lat": 45.4519,
      "lng": -122.6727
    },
    "division": "d3"
  },
  {
    "id": "2025-d3-401777151",
    "week": 11,
    "date": "2025-11-08",
    "day": "Saturday",
    "kickoff": "1p",
    "home": "Puget Sound",
    "away": "Linfield College",
    "homeLogo": null,
    "awayLogo": null,
    "venue": {
      "name": "Baker Stadium",
      "lat": 47.2605,
      "lng": -122.4825
    },
    "division": "d3"
  },
  {
    "id": "2025-d3-401774271",
    "week": 11,
    "date": "2025-11-08",
    "day": "Saturday",
    "kickoff": "1p",
    "home": "La Verne",
    "away": "Chapman",
    "homeLogo": null,
    "awayLogo": null,
    "venue": {
      "name": "Ortmayer Stadium",
      "lat": 34.1008,
      "lng": -117.7678
    },
    "division": "d3"
  },
  {
    "id": "2025-d3-401777174",
    "week": 11,
    "date": "2025-11-08",
    "day": "Saturday",
    "kickoff": "1p",
    "home": "Willamette",
    "away": "Whitworth",
    "homeLogo": null,
    "awayLogo": null,
    "venue": {
      "name": "McCulloch Stadium",
      "lat": 44.9388,
      "lng": -123.0355
    },
    "division": "d3"
  },
  {
    "id": "2025-d3-401777145",
    "week": 11,
    "date": "2025-11-08",
    "day": "Saturday",
    "kickoff": "1:30p",
    "home": "NEWBERG",
    "away": "Pacific (OR)",
    "homeLogo": null,
    "awayLogo": null,
    "venue": {
      "name": "Stoffer Family Stadium",
      "lat": 45.3051,
      "lng": -122.9677
    },
    "division": "d3"
  },
  {
    "id": "2025-d3-401783817",
    "week": 11,
    "date": "2025-11-09",
    "day": "Saturday",
    "kickoff": "7p",
    "home": "Pomona Pitzer",
    "away": "California Lutheran University",
    "homeLogo": null,
    "awayLogo": null,
    "venue": {
      "name": "Merritt Field",
      "lat": 34.098,
      "lng": -117.714
    },
    "division": "d3"
  }
]