[
  {
    "id": "2025-d3-401777144",
    "week": 10,
    "date": "2025-11-01",
    "day": "Saturday",
    "kickoff": "1p",
    "home": "Willamette",
    "away": "NEWBERG",
    "homeLogo": null,
    "awayLogo": null,
    "venue": {
      "name": "McCulloch Stadium",
      "lat": 44.9388,
      "lng": -123.0355
    },
    "division": "d3"
  },
  {
    "id": "2025-d3-401777164",
    "week": 10,
    "date": "2025-11-01",
    "day": "Saturday",
    "kickoff": "1p",
    "home": "Whitworth",
    "away": "Pacific Lutheran",
    "homeLogo": null,
    "awayLogo": null,
    "venue": {
      "name": "Pine Bowl",
      "lat": 47.7523,
      "lng": -117.4202
    },
    "division": "d3"
  },
  {
    "id": "2025-d3-401777150",
    "week": 10,
    "date": "2025-11-01",
    "day": "Saturday",
    "kickoff": "1p",
    "home": "Linfield College",
    "away": "Lewis & Clark College",
    "homeLogo": null,
    "awayLogo": null,
    "venue": {
      "name": "Maxwell Field",
      "lat": 45.2099,
      "lng": -123.1987
    },
    "division": "d3"
  },
  {
    "id": "2025-d3-401777157",
    "week": 10,
    "date": "2025-11-01",
    "day": "Saturday",
    "kickoff": "1p",
    "home": "Puget Sound",
    "away": "Pacific (OR)",
    "homeLogo": null,
    "awayLogo": null,
    "venue": {
      "name": "Baker Stadium",
      "lat": 47.2605,
      "lng": -122.4825
    },
    "division": "d3"
  },
  {
    "id": "2025-d3-401774258",
    "week": 10,
    "date": "2025-11-01",
    "day": "Saturday",
    "kickoff": "1p",
    "home": "La Verne",
    "away": "Redlands",
    "homeLogo": null,
    "awayLogo": null,
    "venue": {
      "name": "Ortmayer Stadium",
      "lat": 34.1008,
      "lng": -117.7678
    },
    "division": "d3"
  },
  {
    "id": "2025-d3-401777164",
    "week": 10,
    "date": "2025-11-01",
    "day": "Saturday",
    "kickoff": "1p",
    "home": "Whitworth",
    "away": "Pacific Lutheran",
    "homeLogo": null,
    "awayLogo": null,
    "venue": {
      "name": "Pine Bowl",
      "lat": 47.7523,
      "lng": -117.4202
    },
    "division": "d3"
  },
  {
    "id": "2025-d3-401777157",
    "week": 10,
    "date": "2025-11-01",
    "day": "Saturday",
    "kickoff": "1p",
    "home": "Puget Sound",
    "away": "Pacific (OR)",
    "homeLogo": null,
    "awayLogo": null,
    "venue": {
      "name": "Baker Stadium",
      "lat": 47.2605,
      "lng": -122.4825
    },
    "division": "d3"
  },
  {
    "id": "2025-d3-401774258",
    "week": 10,
    "date": "2025-11-01",
    "day": "Saturday",
    "kickoff": "1p",
    "home": "La Verne",
    "away": "Redlands",
    "homeLogo": null,
    "awayLogo": null,
    "venue": {
      "name": "Ortmayer Stadium",
      "lat": 34.1008,
      "lng": -117.7678
    },
    "division": "d3"
  },
  {
    "id": "2025-d3-401777144",
    "week": 10,
    "date": "2025-11-01",
    "day": "Saturday",
    "kickoff": "1p",
    "home": "Willamette",
    "away": "NEWBERG",
    "homeLogo": null,
    "awayLogo": null,
    "venue": {
      "name": "McCulloch Stadium",
      "lat": 44.9388,
      "lng": -123.0355
    },
    "division": "d3"
  },
  {
    "id": "2025-d3-401777150",
    "week": 10,
    "date": "2025-11-01",
    "day": "Saturday",
    "kickoff": "1p",
    "home": "Linfield College",
    "away": "Lewis & Clark College",
    "homeLogo": null,
    "awayLogo": null,
    "venue": {
      "name": "Maxwell Field",
      "lat": 45.2099,
      "lng": -123.1987
    },
    "division": "d3"
  },
  {
    "id": "2025-d3-401777144",
    "week": 10,
    "date": "2025-11-01",
    "day": "Saturday",
    "kickoff": "1p",
    "home": "Willamette",
    "away": "NEWBERG",
    "homeLogo": null,
    "awayLogo": null,
    "venue": {
      "name": "McCulloch Stadium",
      "lat": 44.9388,
      "lng": -123.0355
    },
    "division": "d3"
  },
  {
    "id": "2025-d3-401777157",
    "week": 10,
    "date": "2025-11-01",
    "day": "Saturday",
    "kickoff": "1p",
    "home": "Puget Sound",
    "away": "Pacific (OR)",
    "homeLogo": null,
    "awayLogo": null,
    "venue": {
      "name": "Baker Stadium",
      "lat": 47.2605,
      "lng": -122.4825
    },
    "division": "d3"
  },
  {
    "id": "2025-d3-401777164",
    "week": 10,
    "date": "2025-11-01",
    "day": "Saturday",
    "kickoff": "1p",
    "home": "Whitworth",
    "away": "Pacific Lutheran",
    "homeLogo": null,
    "awayLogo": null,
    "venue": {
      "name": "Pine Bowl",
      "lat": 47.7523,
      "lng": -117.4202
    },
    "division": "d3"
  },
  {
    "id": "2025-d3-401774258",
    "week": 10,
    "date": "2025-11-01",
    "day": "Saturday",
    "kickoff": "1p",
    "home": "La Verne",
    "away": "Redlands",
    "homeLogo": null,
    "awayLogo": null,
    "venue": {
      "name": "Ortmayer Stadium",
      "lat": 34.1008,
      "lng": -117.7678
    },
    "division": "d3"
  },
  {
    "id": "2025-d3-401777150",
    "week": 10,
    "date": "2025-11-01",
    "day": "Saturday",
    "kickoff": "1p",
    "home": "Linfield College",
    "away": "Lewis & Clark College",
    "homeLogo": null,
    "awayLogo": null,
    "venue": {
      "name": "Maxwell Field",
      "lat": 45.2099,
      "lng": -123.1987
    },
    "division": "d3"
  },
  {
    "id": "2025-d3-401777157",
    "week": 10,
    "date": "2025-11-01",
    "day": "Saturday",
    "kickoff": "1p",
    "home": "Puget Sound",
    "away": "Pacific (OR)",
    "homeLogo": null,
    "awayLogo": null,
    "venue": {
      "name": "Baker Stadium",
      "lat": 47.2605,
      "lng": -122.4825
    },
    "division": "d3"
  },
  {
    "id": "2025-d3-401777164",
    "week": 10,
    "date": "2025-11-01",
    "day": "Saturday",
    "kickoff": "1p",
    "home": "Whitworth",
    "away": "Pacific Lutheran",
    "homeLogo": null,
    "awayLogo": null,
    "venue": {
      "name": "Pine Bowl",
      "lat": 47.7523,
      "lng": -117.4202
    },
    "division": "d3"
  },
  {
    "id": "2025-d3-401777150",
    "week": 10,
    "date": "2025-11-01",
    "day": "Saturday",
    "kickoff": "1p",
    "home": "Linfield College",
    "away": "Lewis & Clark College",
    "homeLogo": null,
    "awayLogo": null,
    "venue": {
      "name": "Maxwell Field",
      "lat": 45.2099,
      "lng": -123.1987
    },
    "division": "d3"
  },
  {
    "id": "2025-d3-401774258",
    "week": 10,
    "date": "2025-11-01",
    "day": "Saturday",
    "kickoff": "1p",
    "home": "La Verne",
    "away": "Redlands",
    "homeLogo": null,
    "awayLogo": null,
    "venue": {
      "name": "Ortmayer Stadium",
      "lat": 34.1008,
      "lng": -117.7678
    },
    "division": "d3"
  },
  {
    "id": "2025-d3-401777144",
    "week": 10,
    "date": "2025-11-01",
    "day": "Saturday",
    "kickoff": "1p",
    "home": "Willamette",
    "away": "NEWBERG",
    "homeLogo": null,
    "awayLogo": null,
    "venue": {
      "name": "McCulloch Stadium",
      "lat": 44.9388,
      "lng": -123.0355
    },
    "division": "d3"
  }
]